{"features": [{"properties": {"valido": true, "id": "1", "type": "primarios", "name": "ESCUELA NOCTURNA - ANDRES PAJON -"}, "type": "Feature", "geometry": {"coordinates": [-64.164749, -31.277628], "type": "Point"}}, {"properties": {"valido": true, "id": "3", "type": "primarios", "name": "ESCUELA NOCTURNA - ANTARTIDA ARGENTINA -"}, "type": "Feature", "geometry": {"coordinates": [-64.141628, -31.480684], "type": "Point"}}, {"properties": {"valido": true, "id": "7", "type": "primarios", "name": "CENPA - MALVINAS ARGENTINAS"}, "type": "Feature", "geometry": {"coordinates": [-64.052942, -31.375325], "type": "Point"}}, {"properties": {"valido": true, "id": "9", "type": "primarios", "name": "C.E.N.P.A. - DOMINGO NOGAL -"}, "type": "Feature", "geometry": {"coordinates": [-63.94474, -31.34548], "type": "Point"}}, {"properties": {"valido": true, "id": "13", "type": "primarios", "name": "ESCUELA NOCTURNA GRAL. GUEMES"}, "type": "Feature", "geometry": {"coordinates": [-64.41250155, -31.65408494], "type": "Point"}}, {"properties": {"valido": true, "id": "14", "type": "primarios", "name": "ESCUELA NOCTURNA - BELISARIO ROLDAN -"}, "type": "Feature", "geometry": {"coordinates": [-64.28776178, -31.81770411], "type": "Point"}}, {"properties": {"valido": true, "id": "15", "type": "primarios", "name": "CENPA N\u00ba 22 DE VILLA DEL PRADO"}, "type": "Feature", "geometry": {"coordinates": [-64.3917061, -31.6147541], "type": "Point"}}, {"properties": {"valido": true, "id": "19", "type": "primarios", "name": "ESC. NOCTURNA JOSE MARIA PAZ"}, "type": "Feature", "geometry": {"coordinates": [-64.09499567, -30.98086743], "type": "Point"}}, {"properties": {"valido": true, "id": "20", "type": "primarios", "name": "C.A.P. NO.  4 - CASA DE LA CULTURA -"}, "type": "Feature", "geometry": {"coordinates": [-64.43152212, -31.65811994], "type": "Point"}}, {"properties": {"valido": true, "id": "22", "type": "primarios", "name": "CENPA COLONIA CAROYA"}, "type": "Feature", "geometry": {"coordinates": [-64.05782823, -31.02272787], "type": "Point"}}, {"properties": {"valido": true, "id": "26", "type": "primarios", "name": "C.E.N.P.A. - VILLA OBISPO ANGELELLI -"}, "type": "Feature", "geometry": {"coordinates": [-64.1918342, -31.50509493], "type": "Point"}}, {"properties": {"valido": true, "id": "27", "type": "primarios", "name": "ESC. NOCT. CIUDAD DE BS. AS."}, "type": "Feature", "geometry": {"coordinates": [-64.22446361, -31.48072355], "type": "Point"}}, {"properties": {"valido": true, "id": "28", "type": "primarios", "name": "ESC. NOCT. CIUDAD DE BS. AS. EXT AUL VICENTE FORESTIERI"}, "type": "Feature", "geometry": {"coordinates": [-64.22446361, -31.48072355], "type": "Point"}}, {"properties": {"valido": true, "id": "29", "type": "primarios", "name": "ESCUELA NOCTURNA - DOMINGO FAUSTINO SARMIENTO -"}, "type": "Feature", "geometry": {"coordinates": [-64.27016, -31.338878], "type": "Point"}}, {"properties": {"valido": true, "id": "30", "type": "primarios", "name": "ESCUELA NOCTURNA DOMINGO FAUSTINO SARMIENTO EXT AUL PERIFERICOS DE ARGUELLO"}, "type": "Feature", "geometry": {"coordinates": [-64.27016, -31.338878], "type": "Point"}}, {"properties": {"valido": true, "id": "34", "type": "primarios", "name": "ESCUELA NOCTURNA - FRAY LUIS BELTRAN -"}, "type": "Feature", "geometry": {"coordinates": [-64.15211142, -31.37292356], "type": "Point"}}, {"properties": {"valido": true, "id": "37", "type": "primarios", "name": "ESCUELA NOCTURNA - GREGORIA MATORRAS DE SAN MARTIN -"}, "type": "Feature", "geometry": {"coordinates": [-64.17505521, -31.31345235], "type": "Point"}}, {"properties": {"valido": true, "id": "45", "type": "primarios", "name": "ESCUELA NOCTURNA - JOSE MANUEL ESTRADA -"}, "type": "Feature", "geometry": {"coordinates": [-64.255586, -31.33168535], "type": "Point"}}, {"properties": {"valido": true, "id": "49", "type": "primarios", "name": "ESCUELA NOCTURNA LUIS MARIA DRAGO"}, "type": "Feature", "geometry": {"coordinates": [-64.2229126, -31.4713569], "type": "Point"}}, {"properties": {"valido": true, "id": "50", "type": "primarios", "name": "ESCUELA NOCTURNA LUIS MARIA DRAGO EXT. AULICA CIUDAD UNIVERSITARIA"}, "type": "Feature", "geometry": {"coordinates": [-64.2229126, -31.4713569], "type": "Point"}}, {"properties": {"valido": true, "id": "51", "type": "primarios", "name": "ESCUELA NOCTURNA LUIS MAR\u00cdA DRAGO EXTENSI\u00d3N AULICA ARTURO ILLIA"}, "type": "Feature", "geometry": {"coordinates": [-64.2229126, -31.4713569], "type": "Point"}}, {"properties": {"valido": true, "id": "52", "type": "primarios", "name": "ESCUELA NOCTURNA LUIS MAR\u00cdA DRAGO EXTENSI\u00d3N AULICA JUBILADOS Y PENSIONADOS"}, "type": "Feature", "geometry": {"coordinates": [-64.2229126, -31.4713569], "type": "Point"}}, {"properties": {"valido": true, "id": "54", "type": "primarios", "name": "ESCUELA NOCTURNA - MANUELA PEDRAZA  -"}, "type": "Feature", "geometry": {"coordinates": [-64.21187791, -31.4409735], "type": "Point"}}, {"properties": {"valido": true, "id": "55", "type": "primarios", "name": "ESC. NOCT. MERCEDITAS DE SAN MARTIN"}, "type": "Feature", "geometry": {"coordinates": [-64.22170785, -31.33947811], "type": "Point"}}, {"properties": {"valido": true, "id": "56", "type": "primarios", "name": "ESC. NOCT. MERCEDITAS DE SAN MARTIN EXT. AULICA CENTRO VECINAL B\u00b0 LOS BOULEVARES"}, "type": "Feature", "geometry": {"coordinates": [-64.22170785, -31.33947811], "type": "Point"}}, {"properties": {"valido": true, "id": "57", "type": "primarios", "name": "ESCUELA NOCTURNA - PADRE JOSE LEON TORRES -"}, "type": "Feature", "geometry": {"coordinates": [-64.1410761, -31.38851332], "type": "Point"}}, {"properties": {"valido": true, "id": "58", "type": "primarios", "name": "ESC. NOCTURNA PADRE GRENON"}, "type": "Feature", "geometry": {"coordinates": [-64.08889159, -31.46601026], "type": "Point"}}, {"properties": {"valido": true, "id": "60", "type": "primarios", "name": "ESCUELA NOCTURNA - PROFESOR MANUEL GREGORIO OLIVA -"}, "type": "Feature", "geometry": {"coordinates": [-64.17125377, -31.37977658], "type": "Point"}}, {"properties": {"valido": true, "id": "61", "type": "primarios", "name": "ESCUELA NOCTURNA - REPUBLICA DEL LIBANO -"}, "type": "Feature", "geometry": {"coordinates": [-64.14047155, -31.37792329], "type": "Point"}}, {"properties": {"valido": true, "id": "62", "type": "primarios", "name": "ESCUELA NOCTURNA - REPUBLICA DEL LIBANO - EXT AUL B\u00b0 GENERAL BELGRANO"}, "type": "Feature", "geometry": {"coordinates": [-64.14047155, -31.37792329], "type": "Point"}}, {"properties": {"valido": true, "id": "65", "type": "primarios", "name": "Esc Noct San Lorenzo"}, "type": "Feature", "geometry": {"coordinates": [-64.086382, -31.476954], "type": "Point"}}, {"properties": {"valido": true, "id": "66", "type": "primarios", "name": "ESCUELA NOCTURNA - HEROES DE MALVINAS -"}, "type": "Feature", "geometry": {"coordinates": [-64.17898138, -31.33871483], "type": "Point"}}, {"properties": {"valido": true, "id": "67", "type": "primarios", "name": "ESCUELA NOCTURNA"}, "type": "Feature", "geometry": {"coordinates": [-64.16660992, -31.34344031], "type": "Point"}}, {"properties": {"valido": true, "id": "83", "type": "primarios", "name": "CENPA Libertador San Mart\u00edn"}, "type": "Feature", "geometry": {"coordinates": [-64.11068811, -31.46100998], "type": "Point"}}, {"properties": {"valido": true, "id": "84", "type": "primarios", "name": "CENPA HOGAR DE DIA - ARTURO ILLIA"}, "type": "Feature", "geometry": {"coordinates": [-64.19073323, -31.4582739], "type": "Point"}}, {"properties": {"valido": true, "id": "85", "type": "primarios", "name": "C.E.N.P.A. - ESCUELA ESCRIBANO JUAN PAREDES -"}, "type": "Feature", "geometry": {"coordinates": [-64.15652448, -31.36444466], "type": "Point"}}, {"properties": {"valido": true, "id": "86", "type": "primarios", "name": "C.A.P. - UNION VETERANOS DE MALVINAS -"}, "type": "Feature", "geometry": {"coordinates": [-64.13552334, -31.48060666], "type": "Point"}}, {"properties": {"valido": true, "id": "95", "type": "primarios", "name": "CENPA COLONIA TIROLESA"}, "type": "Feature", "geometry": {"coordinates": [-64.06700833, -31.23881398], "type": "Point"}}, {"properties": {"valido": true, "id": "96", "type": "primarios", "name": "CAP N\u00ba 11"}, "type": "Feature", "geometry": {"coordinates": [-64.418154, -31.65746439], "type": "Point"}}, {"properties": {"valido": true, "id": "97", "type": "primarios", "name": "CENPA CREER Y SER"}, "type": "Feature", "geometry": {"coordinates": [-64.19022928, -31.50819626], "type": "Point"}}, {"properties": {"valido": true, "id": "98", "type": "primarios", "name": "ESCUELA NOCTURNA PAULO FREIRE ANEXO I"}, "type": "Feature", "geometry": {"coordinates": [-64.14930512, -31.49677436], "type": "Point"}}, {"properties": {"valido": true, "id": "104", "type": "primarios", "name": "C.E.N.P.A. - VILLA CHACRA DE LA MERCED - B -"}, "type": "Feature", "geometry": {"coordinates": [-64.09360829, -31.40203955], "type": "Point"}}, {"properties": {"valido": true, "id": "110", "type": "primarios", "name": "CENPA EL VAGON"}, "type": "Feature", "geometry": {"coordinates": [-64.26748922, -31.31589665], "type": "Point"}}, {"properties": {"valido": true, "id": "127", "type": "primarios", "name": "ESCUELA NOCTURNA - ANTARTIDA ARGENTINA ANEXO I"}, "type": "Feature", "geometry": {"coordinates": [-64.23090045, -31.54723527], "type": "Point"}}, {"properties": {"valido": true, "id": "137", "type": "primarios", "name": "ESCUELA NOCTURNA PAULO FREIRE ANEXO II"}, "type": "Feature", "geometry": {"coordinates": [-64.202155, -31.45125239], "type": "Point"}}, {"properties": {"valido": true, "id": "145", "type": "primarios", "name": "INSTITUTO HELEN KELLER"}, "type": "Feature", "geometry": {"coordinates": [-64.19313476, -31.43968037], "type": "Point"}}, {"properties": {"valido": true, "id": "146", "type": "primarios", "name": "INSTITUTO DEL LENGUAJE Y LA AUDICION CORDOBA"}, "type": "Feature", "geometry": {"coordinates": [-64.19335636, -31.44035432], "type": "Point"}}, {"properties": {"valido": true, "id": "156", "type": "primarios", "name": "ESCUELA ESPECIAL DR. DOMINGO CABRED"}, "type": "Feature", "geometry": {"coordinates": [-64.19327, -31.44116], "type": "Point"}}, {"properties": {"valido": true, "id": "159", "type": "primarios", "name": "ESCUELA ESPECIAL DR. JERONIMO MORAGAS ANEXO MONTECRISTO"}, "type": "Feature", "geometry": {"coordinates": [-63.947652, -31.343658], "type": "Point"}}, {"properties": {"valido": true, "id": "162", "type": "primarios", "name": "ESCUELA ESPECIAL ESTACION GENERAL PAZ"}, "type": "Feature", "geometry": {"coordinates": [-64.14209, -31.13537], "type": "Point"}}, {"properties": {"valido": true, "id": "166", "type": "primarios", "name": "ESCUELA ESPECIAL NO. 19 BEATRIZ ANGELICA MARTINEZ ALLIO ANEXO ESCUELA PANAMA"}, "type": "Feature", "geometry": {"coordinates": [-64.248411, -31.379195], "type": "Point"}}, {"properties": {"valido": true, "id": "169", "type": "primarios", "name": "ESCUELA ESPECIAL DRA. CAROLINA ANA MOSCA ANEXO ALTA GRACIA"}, "type": "Feature", "geometry": {"coordinates": [-64.43294484, -31.64422418], "type": "Point"}}, {"properties": {"valido": true, "id": "170", "type": "primarios", "name": "ESCUELA ESPECIAL NO. 19 BEATRIZ ANGELICA MARTINEZ ALLIO"}, "type": "Feature", "geometry": {"coordinates": [-64.19302033, -31.43980722], "type": "Point"}}, {"properties": {"valido": true, "id": "172", "type": "primarios", "name": "CURA BROCHERO"}, "type": "Feature", "geometry": {"coordinates": [-64.16054769, -31.37902792], "type": "Point"}}, {"properties": {"valido": true, "id": "173", "type": "primarios", "name": "VICENTE FIDEL LOPEZ"}, "type": "Feature", "geometry": {"coordinates": [-64.16008345, -31.38888346], "type": "Point"}}, {"properties": {"valido": true, "id": "175", "type": "primarios", "name": "OBISPO ESQUIU"}, "type": "Feature", "geometry": {"coordinates": [-64.107881, -31.359108], "type": "Point"}}, {"properties": {"valido": true, "id": "176", "type": "primarios", "name": "GENERAL SANTIAGO H. DEL CASTILLO"}, "type": "Feature", "geometry": {"coordinates": [-64.15233386, -31.37356396], "type": "Point"}}, {"properties": {"valido": true, "id": "177", "type": "primarios", "name": "MATEO JOSE LUQUE"}, "type": "Feature", "geometry": {"coordinates": [-64.13429508, -31.3851464], "type": "Point"}}, {"properties": {"valido": true, "id": "178", "type": "primarios", "name": "FRAY MAMERTO ESQUIU"}, "type": "Feature", "geometry": {"coordinates": [-64.12915309, -31.385403], "type": "Point"}}, {"properties": {"valido": true, "id": "179", "type": "primarios", "name": "SARGENTO CABRAL"}, "type": "Feature", "geometry": {"coordinates": [-64.14107183, -31.38862303], "type": "Point"}}, {"properties": {"valido": true, "id": "180", "type": "primarios", "name": "MANUEL BELGRANO"}, "type": "Feature", "geometry": {"coordinates": [-64.13546595, -31.37105978], "type": "Point"}}, {"properties": {"valido": true, "id": "181", "type": "primarios", "name": "JOSE MARIA PAZ"}, "type": "Feature", "geometry": {"coordinates": [-64.14030652, -31.37791706], "type": "Point"}}, {"properties": {"valido": true, "id": "182", "type": "primarios", "name": "RABINDRANATH TAGORE"}, "type": "Feature", "geometry": {"coordinates": [-64.12283224, -31.38857969], "type": "Point"}}, {"properties": {"valido": true, "id": "184", "type": "primarios", "name": "PROFESOR JOSE TORIBIO HERNANDEZ"}, "type": "Feature", "geometry": {"coordinates": [-64.14717373, -31.39555667], "type": "Point"}}, {"properties": {"valido": true, "id": "185", "type": "primarios", "name": "ANTARTIDA ARGENTINA"}, "type": "Feature", "geometry": {"coordinates": [-64.14174449, -31.3930408], "type": "Point"}}, {"properties": {"valido": true, "id": "186", "type": "primarios", "name": "ALMIRANTE GUILLERMO BROWN"}, "type": "Feature", "geometry": {"coordinates": [-64.13764259, -31.39237449], "type": "Point"}}, {"properties": {"valido": true, "id": "187", "type": "primarios", "name": "REPUBLICA DE LA INDIA"}, "type": "Feature", "geometry": {"coordinates": [-64.10749237, -31.38186328], "type": "Point"}}, {"properties": {"valido": true, "id": "188", "type": "primarios", "name": "ARISTOBULO DEL VALLE"}, "type": "Feature", "geometry": {"coordinates": [-64.15032482, -31.39175217], "type": "Point"}}, {"properties": {"valido": true, "id": "190", "type": "primarios", "name": "GOBERNADOR JUSTO PAEZ MOLINA"}, "type": "Feature", "geometry": {"coordinates": [-64.15284657, -31.3764982], "type": "Point"}}, {"properties": {"valido": true, "id": "191", "type": "primarios", "name": "PADRE DIEGO DE TORRES"}, "type": "Feature", "geometry": {"coordinates": [-64.153291, -31.383497], "type": "Point"}}, {"properties": {"valido": true, "id": "192", "type": "primarios", "name": "DOCTOR EMILIO ESTEBAN SANCHEZ"}, "type": "Feature", "geometry": {"coordinates": [-64.11877003, -31.38788278], "type": "Point"}}, {"properties": {"valido": true, "id": "193", "type": "primarios", "name": "UNION LATINOAMERICANA"}, "type": "Feature", "geometry": {"coordinates": [-64.14270523, -31.36951892], "type": "Point"}}, {"properties": {"valido": true, "id": "196", "type": "primarios", "name": "PROVINCIA DE MISIONES"}, "type": "Feature", "geometry": {"coordinates": [-64.20352625, -31.37454499], "type": "Point"}}, {"properties": {"valido": true, "id": "197", "type": "primarios", "name": "JUAN MARIA GUTIERREZ"}, "type": "Feature", "geometry": {"coordinates": [-64.22464419, -31.34358959], "type": "Point"}}, {"properties": {"valido": true, "id": "198", "type": "primarios", "name": "MAHATMA GANDHI"}, "type": "Feature", "geometry": {"coordinates": [-64.20784329, -31.37431499], "type": "Point"}}, {"properties": {"valido": true, "id": "200", "type": "primarios", "name": "HONORATO LACONI"}, "type": "Feature", "geometry": {"coordinates": [-64.19480523, -31.36380237], "type": "Point"}}, {"properties": {"valido": true, "id": "201", "type": "primarios", "name": "LEOPOLDO LUGONES"}, "type": "Feature", "geometry": {"coordinates": [-64.21078537, -31.36260783], "type": "Point"}}, {"properties": {"valido": true, "id": "202", "type": "primarios", "name": "MAESTROS PUNTANOS"}, "type": "Feature", "geometry": {"coordinates": [-64.2225948, -31.35990929], "type": "Point"}}, {"properties": {"valido": true, "id": "206", "type": "primarios", "name": "RAFAELA SANCHEZ DE CALDELARI"}, "type": "Feature", "geometry": {"coordinates": [-64.17114638, -31.37972522], "type": "Point"}}, {"properties": {"valido": true, "id": "207", "type": "primarios", "name": "FRANCISCO ANTONIO RIZZUTO"}, "type": "Feature", "geometry": {"coordinates": [-64.17312797, -31.37539346], "type": "Point"}}, {"properties": {"valido": true, "id": "208", "type": "primarios", "name": "OLEGARIO VICTOR ANDRADE"}, "type": "Feature", "geometry": {"coordinates": [-64.14752944, -31.3422874], "type": "Point"}}, {"properties": {"valido": true, "id": "209", "type": "primarios", "name": "FLORENCIO SANCHEZ"}, "type": "Feature", "geometry": {"coordinates": [-64.11681227, -31.32123448], "type": "Point"}}, {"properties": {"valido": true, "id": "210", "type": "primarios", "name": "RICARDO ROJAS"}, "type": "Feature", "geometry": {"coordinates": [-64.15803621, -31.3578393], "type": "Point"}}, {"properties": {"valido": true, "id": "211", "type": "primarios", "name": "GREGORIA MATORRAS DE SAN MARTIN"}, "type": "Feature", "geometry": {"coordinates": [-64.17508502, -31.32489286], "type": "Point"}}, {"properties": {"valido": true, "id": "212", "type": "primarios", "name": "NACIONES UNIDAS"}, "type": "Feature", "geometry": {"coordinates": [-64.17879222, -31.3387086], "type": "Point"}}, {"properties": {"valido": true, "id": "213", "type": "primarios", "name": "PAULA ALBARRACIN DE SARMIENTO"}, "type": "Feature", "geometry": {"coordinates": [-64.17498447, -31.36775486], "type": "Point"}}, {"properties": {"valido": true, "id": "214", "type": "primarios", "name": "JORGE NEWBERY"}, "type": "Feature", "geometry": {"coordinates": [-64.180323, -31.349536], "type": "Point"}}, {"properties": {"valido": true, "id": "218", "type": "primarios", "name": "U.N.E.S.C.O."}, "type": "Feature", "geometry": {"coordinates": [-64.17503562, -31.31357567], "type": "Point"}}, {"properties": {"valido": true, "id": "219", "type": "primarios", "name": "FRANCISCO VIDAL"}, "type": "Feature", "geometry": {"coordinates": [-64.18206501, -31.36768216], "type": "Point"}}, {"properties": {"valido": true, "id": "220", "type": "primarios", "name": "DOCTOR HENOCH DOMINGO AGUIAR"}, "type": "Feature", "geometry": {"coordinates": [-64.16735444, -31.36342469], "type": "Point"}}, {"properties": {"valido": true, "id": "221", "type": "primarios", "name": "JUAN ZORRILLA DE SAN MARTIN"}, "type": "Feature", "geometry": {"coordinates": [-64.23494688, -31.3727755], "type": "Point"}}, {"properties": {"valido": true, "id": "222", "type": "primarios", "name": "ELISA KOPSTEIN DE LITVACK"}, "type": "Feature", "geometry": {"coordinates": [-64.27454043, -31.34410675], "type": "Point"}}, {"properties": {"valido": true, "id": "223", "type": "primarios", "name": "RICARDO PALMA"}, "type": "Feature", "geometry": {"coordinates": [-64.25260074, -31.36121289], "type": "Point"}}, {"properties": {"valido": true, "id": "224", "type": "primarios", "name": "MARTIN MIGUEL DE GUEMES"}, "type": "Feature", "geometry": {"coordinates": [-64.27018462, -31.33887363], "type": "Point"}}, {"properties": {"valido": true, "id": "225", "type": "primarios", "name": "PRIMERA JUNTA"}, "type": "Feature", "geometry": {"coordinates": [-64.23122389, -31.36412311], "type": "Point"}}, {"properties": {"valido": true, "id": "227", "type": "primarios", "name": "NI\u00d1AS DE AYOHUMA"}, "type": "Feature", "geometry": {"coordinates": [-64.26207616, -31.32553606], "type": "Point"}}, {"properties": {"valido": true, "id": "228", "type": "primarios", "name": "JAVIER LAZCANO COLODRERO"}, "type": "Feature", "geometry": {"coordinates": [-64.2584271, -31.33563903], "type": "Point"}}, {"properties": {"valido": true, "id": "229", "type": "primarios", "name": "DOCTOR ALEJANDRO GALLARDO"}, "type": "Feature", "geometry": {"coordinates": [-64.24726458, -31.34440905], "type": "Point"}}, {"properties": {"valido": true, "id": "230", "type": "primarios", "name": "MODESTA RODRIGUEZ"}, "type": "Feature", "geometry": {"coordinates": [-64.261024, -31.32147454], "type": "Point"}}, {"properties": {"valido": true, "id": "236", "type": "primarios", "name": "CONGRESO DE TUCUMAN"}, "type": "Feature", "geometry": {"coordinates": [-64.211803, -31.377053], "type": "Point"}}, {"properties": {"valido": true, "id": "241", "type": "primarios", "name": "DR. MIGUEL RODRIGUEZ DE LA TORRE"}, "type": "Feature", "geometry": {"coordinates": [-64.22090907, -31.37173934], "type": "Point"}}, {"properties": {"valido": true, "id": "244", "type": "primarios", "name": "REPUBLICA DE PANAMA"}, "type": "Feature", "geometry": {"coordinates": [-64.24812339, -31.37918888], "type": "Point"}}, {"properties": {"valido": true, "id": "245", "type": "primarios", "name": "REPUBLICA DEL LIBANO"}, "type": "Feature", "geometry": {"coordinates": [-64.23837243, -31.3808307], "type": "Point"}}, {"properties": {"valido": true, "id": "246", "type": "primarios", "name": "MARTHA ALCIRA  SALOTTI"}, "type": "Feature", "geometry": {"coordinates": [-64.24607679, -31.33191067], "type": "Point"}}, {"properties": {"valido": true, "id": "247", "type": "primarios", "name": "RICARDO NASSIF"}, "type": "Feature", "geometry": {"coordinates": [-64.24657163, -31.33668285], "type": "Point"}}, {"properties": {"valido": true, "id": "248", "type": "primarios", "name": "HUGO LEONELLI"}, "type": "Feature", "geometry": {"coordinates": [-64.242476, -31.333523], "type": "Point"}}, {"properties": {"valido": true, "id": "276", "type": "primarios", "name": "ALEJANDRO CARBO"}, "type": "Feature", "geometry": {"coordinates": [-64.20426503, -31.48096988], "type": "Point"}}, {"properties": {"valido": true, "id": "277", "type": "primarios", "name": "PROVINCIA DE SANTIAGO DEL ESTERO"}, "type": "Feature", "geometry": {"coordinates": [-64.21100152, -31.47981983], "type": "Point"}}, {"properties": {"valido": true, "id": "278", "type": "primarios", "name": "ERNESTO BANCALARI"}, "type": "Feature", "geometry": {"coordinates": [-64.20044843, -31.46503351], "type": "Point"}}, {"properties": {"valido": true, "id": "279", "type": "primarios", "name": "PATRICIAS MENDOCINAS"}, "type": "Feature", "geometry": {"coordinates": [-64.22293038, -31.47128664], "type": "Point"}}, {"properties": {"valido": true, "id": "280", "type": "primarios", "name": "YAPEYU"}, "type": "Feature", "geometry": {"coordinates": [-64.2035851, -31.46038553], "type": "Point"}}, {"properties": {"valido": true, "id": "281", "type": "primarios", "name": "20 DE JUNIO"}, "type": "Feature", "geometry": {"coordinates": [-64.18423998, -31.44336082], "type": "Point"}}, {"properties": {"valido": true, "id": "282", "type": "primarios", "name": "NICOLAS BERROTARAN"}, "type": "Feature", "geometry": {"coordinates": [-64.1798456, -31.45057448], "type": "Point"}}, {"properties": {"valido": true, "id": "283", "type": "primarios", "name": "ALMAFUERTE"}, "type": "Feature", "geometry": {"coordinates": [-64.192596, -31.447291], "type": "Point"}}, {"properties": {"valido": true, "id": "284", "type": "primarios", "name": "DE LAS AMERICAS"}, "type": "Feature", "geometry": {"coordinates": [-64.1909613, -31.45815434], "type": "Point"}}, {"properties": {"valido": true, "id": "285", "type": "primarios", "name": "SAN JOSE DE CALASANZ"}, "type": "Feature", "geometry": {"coordinates": [-64.19363826, -31.47670021], "type": "Point"}}, {"properties": {"valido": true, "id": "286", "type": "primarios", "name": "LORENZO SUAREZ DE FIGUEROA"}, "type": "Feature", "geometry": {"coordinates": [-64.20178577, -31.47208565], "type": "Point"}}, {"properties": {"valido": true, "id": "288", "type": "primarios", "name": "BANDERA ARGENTINA"}, "type": "Feature", "geometry": {"coordinates": [-64.23470735, -31.47103266], "type": "Point"}}, {"properties": {"valido": true, "id": "289", "type": "primarios", "name": "DOCTOR BENITO SORIA"}, "type": "Feature", "geometry": {"coordinates": [-64.24751821, -31.47961651], "type": "Point"}}, {"properties": {"valido": true, "id": "291", "type": "primarios", "name": "MARIA DEL TRANSITO CABANILLAS"}, "type": "Feature", "geometry": {"coordinates": [-64.14301153, -31.47554719], "type": "Point"}}, {"properties": {"valido": true, "id": "292", "type": "primarios", "name": "MANUEL BELGRANO"}, "type": "Feature", "geometry": {"coordinates": [-64.20601019, -31.44298628], "type": "Point"}}, {"properties": {"valido": true, "id": "293", "type": "primarios", "name": "GOBERNADOR JUAN BAUTISTA BUSTOS"}, "type": "Feature", "geometry": {"coordinates": [-64.21239526, -31.44881891], "type": "Point"}}, {"properties": {"valido": true, "id": "294", "type": "primarios", "name": "ARZOBISPO CASTELLANO"}, "type": "Feature", "geometry": {"coordinates": [-64.211492, -31.441131], "type": "Point"}}, {"properties": {"valido": true, "id": "295", "type": "primarios", "name": "REPUBLICA DE SIRIA"}, "type": "Feature", "geometry": {"coordinates": [-64.21047464, -31.45280241], "type": "Point"}}, {"properties": {"valido": true, "id": "299", "type": "primarios", "name": "PROVINCIA DE CATAMARCA"}, "type": "Feature", "geometry": {"coordinates": [-64.20072154, -31.45124142], "type": "Point"}}, {"properties": {"valido": true, "id": "302", "type": "primarios", "name": "COMODORO ROBERTO MOISES ECHEGOYEN"}, "type": "Feature", "geometry": {"coordinates": [-64.195861, -31.446704], "type": "Point"}}, {"properties": {"valido": true, "id": "303", "type": "primarios", "name": "DR. ALBERT BRUCE SABIN"}, "type": "Feature", "geometry": {"coordinates": [-64.19887281, -31.49986053], "type": "Point"}}, {"properties": {"valido": true, "id": "318", "type": "primarios", "name": "CORONEL OLMEDO"}, "type": "Feature", "geometry": {"coordinates": [-64.14219191, -31.48001704], "type": "Point"}}, {"properties": {"valido": true, "id": "320", "type": "primarios", "name": "GENERAL MANUEL BELGRANO"}, "type": "Feature", "geometry": {"coordinates": [-64.16578306, -31.450255], "type": "Point"}}, {"properties": {"valido": true, "id": "323", "type": "primarios", "name": "JOSE MANUEL ESTRADA"}, "type": "Feature", "geometry": {"coordinates": [-64.16863307, -31.50206678], "type": "Point"}}, {"properties": {"valido": true, "id": "324", "type": "primarios", "name": "JUAN XXIII"}, "type": "Feature", "geometry": {"coordinates": [-64.10414962, -31.463004], "type": "Point"}}, {"properties": {"valido": true, "id": "325", "type": "primarios", "name": "LIBERTADOR GENERAL SAN MARTIN"}, "type": "Feature", "geometry": {"coordinates": [-64.11090047, -31.46117086], "type": "Point"}}, {"properties": {"valido": true, "id": "326", "type": "primarios", "name": "EJERCITO ARGENTINO"}, "type": "Feature", "geometry": {"coordinates": [-64.08890907, -31.4661482], "type": "Point"}}, {"properties": {"valido": true, "id": "327", "type": "primarios", "name": "REPUBLICA DE COSTA RICA"}, "type": "Feature", "geometry": {"coordinates": [-64.076726, -31.492202], "type": "Point"}}, {"properties": {"valido": true, "id": "328", "type": "primarios", "name": "CONSTANCIO CECILIO VIGIL"}, "type": "Feature", "geometry": {"coordinates": [-64.10940011, -31.45422291], "type": "Point"}}, {"properties": {"valido": true, "id": "332", "type": "primarios", "name": "GENERAL MANUEL DE ESCALADA"}, "type": "Feature", "geometry": {"coordinates": [-64.101698, -31.505733], "type": "Point"}}, {"properties": {"valido": true, "id": "333", "type": "primarios", "name": "DOCTOR NICOLAS AVELLANEDA"}, "type": "Feature", "geometry": {"coordinates": [-64.16908104, -31.47051954], "type": "Point"}}, {"properties": {"valido": true, "id": "334", "type": "primarios", "name": "INGENIERO JUAN MARIO MASJOAN"}, "type": "Feature", "geometry": {"coordinates": [-64.17159864, -31.4475665], "type": "Point"}}, {"properties": {"valido": true, "id": "337", "type": "primarios", "name": "RAUL ANGEL FERREYRA"}, "type": "Feature", "geometry": {"coordinates": [-64.164977, -31.459879], "type": "Point"}}, {"properties": {"valido": true, "id": "338", "type": "primarios", "name": "PRESIDENTE DOCTOR ARTURO UMBERTO ILLIA"}, "type": "Feature", "geometry": {"coordinates": [-64.20760461, -31.4774911], "type": "Point"}}, {"properties": {"valido": true, "id": "354", "type": "primarios", "name": "ADOLFO VAN GELDEREN"}, "type": "Feature", "geometry": {"coordinates": [-64.08781346, -31.40355339], "type": "Point"}}, {"properties": {"valido": true, "id": "359", "type": "primarios", "name": "TRANSITO CACERES DE ALLENDE"}, "type": "Feature", "geometry": {"coordinates": [-64.05717477, -31.41862389], "type": "Point"}}, {"properties": {"valido": true, "id": "360", "type": "primarios", "name": "JOS\u00c9 GABRIEL CONDORCANQUI-TUPAC AMAR\u00da II(EX ANEXO CURA BROCHERO)"}, "type": "Feature", "geometry": {"coordinates": [-64.2609163, -31.31297], "type": "Point"}}, {"properties": {"valido": true, "id": "361", "type": "primarios", "name": "JOSE LUIS SERSIC (EX ANEXO H LACONI)"}, "type": "Feature", "geometry": {"coordinates": [-64.193446, -31.366939], "type": "Point"}}, {"properties": {"valido": true, "id": "362", "type": "primarios", "name": "VICENTE FORESTIERI"}, "type": "Feature", "geometry": {"coordinates": [-64.22472195, -31.48035889], "type": "Point"}}, {"properties": {"valido": true, "id": "363", "type": "primarios", "name": "OSVALDO JORGE LEON (ex-Anexo Bandera Argentina)"}, "type": "Feature", "geometry": {"coordinates": [-64.23497, -31.480023], "type": "Point"}}, {"properties": {"valido": true, "id": "364", "type": "primarios", "name": "CEFERINO NAMUNCURA"}, "type": "Feature", "geometry": {"coordinates": [-64.24232637, -31.47876003], "type": "Point"}}, {"properties": {"valido": true, "id": "366", "type": "primarios", "name": "MADRE TERESA DE CALCUTA"}, "type": "Feature", "geometry": {"coordinates": [-64.15795941, -31.46430711], "type": "Point"}}, {"properties": {"valido": true, "id": "367", "type": "primarios", "name": "DR. RENE FAVALORO"}, "type": "Feature", "geometry": {"coordinates": [-64.2612056, -31.31350302], "type": "Point"}}, {"properties": {"valido": true, "id": "368", "type": "primarios", "name": "HEROES DE MALVINAS"}, "type": "Feature", "geometry": {"coordinates": [-64.09287247, -31.4589536], "type": "Point"}}, {"properties": {"valido": true, "id": "369", "type": "primarios", "name": "JAVIER VILLAFA\u00d1E"}, "type": "Feature", "geometry": {"coordinates": [-64.25380444, -31.32073938], "type": "Point"}}, {"properties": {"valido": true, "id": "370", "type": "primarios", "name": "GERONIMO GRAGERA"}, "type": "Feature", "geometry": {"coordinates": [-64.27980081, -31.3232745], "type": "Point"}}, {"properties": {"valido": true, "id": "372", "type": "primarios", "name": "DR. CARLOS SAAVEDRA LAMAS"}, "type": "Feature", "geometry": {"coordinates": [-64.084943, -31.481797], "type": "Point"}}, {"properties": {"valido": true, "id": "373", "type": "primarios", "name": "2 DE ABRIL"}, "type": "Feature", "geometry": {"coordinates": [-64.13023308, -31.3694037], "type": "Point"}}, {"properties": {"valido": true, "id": "376", "type": "primarios", "name": "GOBERNADOR MANUEL LOPEZ"}, "type": "Feature", "geometry": {"coordinates": [-64.185807, -31.360623], "type": "Point"}}, {"properties": {"valido": true, "id": "377", "type": "primarios", "name": "EVA DUARTE"}, "type": "Feature", "geometry": {"coordinates": [-64.16016022, -31.35926446], "type": "Point"}}, {"properties": {"valido": true, "id": "379", "type": "primarios", "name": "DR. HUMBERTO ROQUE DAGUM"}, "type": "Feature", "geometry": {"coordinates": [-64.18114696, -31.33659435], "type": "Point"}}, {"properties": {"valido": true, "id": "382", "type": "primarios", "name": "ALBERT BRUCE SABIN (ANEXO)"}, "type": "Feature", "geometry": {"coordinates": [-64.19074809, -31.51358564], "type": "Point"}}, {"properties": {"valido": true, "id": "384", "type": "primarios", "name": "MAESTRO MOYANO"}, "type": "Feature", "geometry": {"coordinates": [-64.16284334, -31.34371029], "type": "Point"}}, {"properties": {"valido": true, "id": "385", "type": "primarios", "name": "PRESIDENTE JUAN DOMINGO PERON"}, "type": "Feature", "geometry": {"coordinates": [-64.110039, -31.449343], "type": "Point"}}, {"properties": {"valido": true, "id": "386", "type": "primarios", "name": "MAESTRA MARIA SALEME"}, "type": "Feature", "geometry": {"coordinates": [-64.085472, -31.477052], "type": "Point"}}, {"properties": {"valido": true, "id": "387", "type": "primarios", "name": "ELPIDIO TORRES"}, "type": "Feature", "geometry": {"coordinates": [-64.22252811, -31.45246554], "type": "Point"}}, {"properties": {"valido": true, "id": "388", "type": "primarios", "name": "MARTA JUANA GONZALEZ - EX PATRICIAS MENDOCINAS"}, "type": "Feature", "geometry": {"coordinates": [-64.21782105, -31.46863098], "type": "Point"}}, {"properties": {"valido": true, "id": "389", "type": "primarios", "name": "DR. CARLOS TAGLE ACHAVAL"}, "type": "Feature", "geometry": {"coordinates": [-64.12531302, -31.37083811], "type": "Point"}}, {"properties": {"valido": true, "id": "390", "type": "primarios", "name": "JUANA AZURDUY"}, "type": "Feature", "geometry": {"coordinates": [-64.10602151, -31.38788465], "type": "Point"}}, {"properties": {"valido": true, "id": "391", "type": "primarios", "name": "PROFESOR OSCAR RAUL MALVASIO"}, "type": "Feature", "geometry": {"coordinates": [-64.18606574, -31.49620105], "type": "Point"}}, {"properties": {"valido": true, "id": "392", "type": "primarios", "name": "DON ARTEMIO ARAN"}, "type": "Feature", "geometry": {"coordinates": [-64.254078, -31.318754], "type": "Point"}}, {"properties": {"valido": true, "id": "393", "type": "primarios", "name": "CLARA BEATRIZ ALTAMIRANO"}, "type": "Feature", "geometry": {"coordinates": [-64.14509944, -31.34801267], "type": "Point"}}, {"properties": {"valido": true, "id": "394", "type": "primarios", "name": "CARLOS MUJICA"}, "type": "Feature", "geometry": {"coordinates": [-64.15324472, -31.36401447], "type": "Point"}}, {"properties": {"valido": true, "id": "395", "type": "primarios", "name": "PAULINO FRANCES"}, "type": "Feature", "geometry": {"coordinates": [-64.11998478, -31.47549286], "type": "Point"}}, {"properties": {"valido": true, "id": "396", "type": "primarios", "name": "GRACIELA DEL RIO"}, "type": "Feature", "geometry": {"coordinates": [-64.22805898, -31.48297844], "type": "Point"}}, {"properties": {"valido": true, "id": "397", "type": "primarios", "name": "JORGE RAUL RECALDE"}, "type": "Feature", "geometry": {"coordinates": [-64.2609163, -31.31297], "type": "Point"}}, {"properties": {"valido": true, "id": "398", "type": "primarios", "name": "NORMA QUARTINO"}, "type": "Feature", "geometry": {"coordinates": [-64.0607582, -31.39420635], "type": "Point"}}, {"properties": {"valido": true, "id": "399", "type": "primarios", "name": "DRA. LILIANA BEATRIZ SARMIENTO HERRERA"}, "type": "Feature", "geometry": {"coordinates": [-64.21854914, -31.35051544], "type": "Point"}}, {"properties": {"valido": true, "id": "400", "type": "primarios", "name": "SIN NOMBRE B\u00ba VICOR"}, "type": "Feature", "geometry": {"coordinates": [-64.252651, -31.477103], "type": "Point"}}, {"properties": {"valido": true, "id": "401", "type": "primarios", "name": "U.N.E.S.C.O. ANEXO"}, "type": "Feature", "geometry": {"coordinates": [-64.1804733, -31.3107891], "type": "Point"}}, {"properties": {"valido": true, "id": "405", "type": "primarios", "name": "25 DE MAYO"}, "type": "Feature", "geometry": {"coordinates": [-63.947324, -31.343335], "type": "Point"}}, {"properties": {"valido": true, "id": "428", "type": "primarios", "name": "ANTARTIDA ARGENTINA"}, "type": "Feature", "geometry": {"coordinates": [-63.85612874, -31.32303533], "type": "Point"}}, {"properties": {"valido": true, "id": "441", "type": "primarios", "name": "MAESTRO DOMINGO  NOGAL"}, "type": "Feature", "geometry": {"coordinates": [-63.94474, -31.34548], "type": "Point"}}, {"properties": {"valido": true, "id": "446", "type": "primarios", "name": "MANUEL BELGRANO"}, "type": "Feature", "geometry": {"coordinates": [-63.89371257, -31.18497825], "type": "Point"}}, {"properties": {"valido": true, "id": "447", "type": "primarios", "name": "DOMINGO FAUSTINO SARMIENTO"}, "type": "Feature", "geometry": {"coordinates": [-63.88356407, -31.25596752], "type": "Point"}}, {"properties": {"valido": true, "id": "558", "type": "primarios", "name": "MARGARITA VAZQUEZ LUDUE\u00d1A DE LAZO"}, "type": "Feature", "geometry": {"coordinates": [-63.94474, -31.34548], "type": "Point"}}, {"properties": {"valido": true, "id": "559", "type": "primarios", "name": "GENERAL MANUEL BELGRANO"}, "type": "Feature", "geometry": {"coordinates": [-64.09041662, -31.00865314], "type": "Point"}}, {"properties": {"valido": true, "id": "560", "type": "primarios", "name": "GENERAL SAN MARTIN"}, "type": "Feature", "geometry": {"coordinates": [-64.06637282, -31.02122505], "type": "Point"}}, {"properties": {"valido": true, "id": "561", "type": "primarios", "name": "JOSE MARIA PAZ"}, "type": "Feature", "geometry": {"coordinates": [-64.1406522, -31.1352458], "type": "Point"}}, {"properties": {"valido": true, "id": "562", "type": "primarios", "name": "GENERAL FRANCISCO ORTIZ DE OCAMPO"}, "type": "Feature", "geometry": {"coordinates": [-64.09499567, -30.98086743], "type": "Point"}}, {"properties": {"valido": true, "id": "563", "type": "primarios", "name": "DOCTOR FRANCISCO NARCISO LAPRIDA"}, "type": "Feature", "geometry": {"coordinates": [-64.09499567, -30.98086743], "type": "Point"}}, {"properties": {"valido": true, "id": "564", "type": "primarios", "name": "PRIMER TENIENTE ALBERTO LUIS MORANDINI"}, "type": "Feature", "geometry": {"coordinates": [-64.09455956, -30.98537141], "type": "Point"}}, {"properties": {"valido": true, "id": "567", "type": "primarios", "name": "MARIANO MORENO"}, "type": "Feature", "geometry": {"coordinates": [-64.0433397, -31.04643051], "type": "Point"}}, {"properties": {"valido": true, "id": "572", "type": "primarios", "name": "DR. PABLO RUEDA"}, "type": "Feature", "geometry": {"coordinates": [-64.06759299, -31.22827701], "type": "Point"}}, {"properties": {"valido": true, "id": "575", "type": "primarios", "name": "COMODORO ROLANDO SILIONI"}, "type": "Feature", "geometry": {"coordinates": [-64.16679, -31.261543], "type": "Point"}}, {"properties": {"valido": true, "id": "576", "type": "primarios", "name": "GENDARMERIA NACIONAL"}, "type": "Feature", "geometry": {"coordinates": [-64.08717748, -30.97858856], "type": "Point"}}, {"properties": {"valido": true, "id": "579", "type": "primarios", "name": "EDUARDO WILDE"}, "type": "Feature", "geometry": {"coordinates": [-64.06038549, -31.32152943], "type": "Point"}}, {"properties": {"valido": true, "id": "580", "type": "primarios", "name": "JOSE INGENIEROS"}, "type": "Feature", "geometry": {"coordinates": [-64.055197, -31.267014], "type": "Point"}}, {"properties": {"valido": true, "id": "581", "type": "primarios", "name": "GRUPO ARTILLERIA AEROTRANSPORTADO 4"}, "type": "Feature", "geometry": {"coordinates": [-64.074193, -31.258817], "type": "Point"}}, {"properties": {"valido": true, "id": "583", "type": "primarios", "name": "PATRICIAS ARGENTINAS"}, "type": "Feature", "geometry": {"coordinates": [-64.06674259, -31.25669329], "type": "Point"}}, {"properties": {"valido": true, "id": "584", "type": "primarios", "name": "GENERAL LAMADRID"}, "type": "Feature", "geometry": {"coordinates": [-63.9533565, -31.2562626], "type": "Point"}}, {"properties": {"valido": true, "id": "593", "type": "primarios", "name": "MARIANO MORENO"}, "type": "Feature", "geometry": {"coordinates": [-64.08758329, -31.03858379], "type": "Point"}}, {"properties": {"valido": true, "id": "596", "type": "primarios", "name": "LA SANTA MARIA"}, "type": "Feature", "geometry": {"coordinates": [-64.1435174, -31.297188], "type": "Point"}}, {"properties": {"valido": true, "id": "598", "type": "primarios", "name": "LOS INMIGRANTES"}, "type": "Feature", "geometry": {"coordinates": [-64.10810871, -30.99731014], "type": "Point"}}, {"properties": {"valido": true, "id": "599", "type": "primarios", "name": "ATAHUALPA YUPANQUI"}, "type": "Feature", "geometry": {"coordinates": [-64.2778586, -31.30573532], "type": "Point"}}, {"properties": {"valido": true, "id": "600", "type": "primarios", "name": "REPUBLICA DE ITALIA"}, "type": "Feature", "geometry": {"coordinates": [-64.0721367, -31.00617654], "type": "Point"}}, {"properties": {"valido": true, "id": "603", "type": "primarios", "name": "CAPITAN LUIS C. CANDELARIA"}, "type": "Feature", "geometry": {"coordinates": [-64.043336, -31.366622], "type": "Point"}}, {"properties": {"valido": true, "id": "606", "type": "primarios", "name": "HIPOLITO DE  SAHAGUN NAVARRO"}, "type": "Feature", "geometry": {"coordinates": [-64.07463455, -31.25832604], "type": "Point"}}, {"properties": {"valido": true, "id": "607", "type": "primarios", "name": "CARLOS MOREL"}, "type": "Feature", "geometry": {"coordinates": [-64.013931, -31.274794], "type": "Point"}}, {"properties": {"valido": true, "id": "612", "type": "primarios", "name": "DOMINGO FAUSTINO SARMIENTO"}, "type": "Feature", "geometry": {"coordinates": [-64.06079081, -31.0152002], "type": "Point"}}, {"properties": {"valido": true, "id": "613", "type": "primarios", "name": "DOCTOR JOSE MANUEL ESTRADA"}, "type": "Feature", "geometry": {"coordinates": [-64.10391276, -30.98267674], "type": "Point"}}, {"properties": {"valido": true, "id": "614", "type": "primarios", "name": "VICENTE AGUERO"}, "type": "Feature", "geometry": {"coordinates": [-64.01759037, -31.02837485], "type": "Point"}}, {"properties": {"valido": true, "id": "616", "type": "primarios", "name": "ATAHUALPA YUPANQUI"}, "type": "Feature", "geometry": {"coordinates": [-64.18038, -31.299964], "type": "Point"}}, {"properties": {"valido": true, "id": "617", "type": "primarios", "name": "CAPITAN DE FRAGATA PEDRO E. GIACHINO"}, "type": "Feature", "geometry": {"coordinates": [-64.08397382, -30.98294443], "type": "Point"}}, {"properties": {"valido": true, "id": "619", "type": "primarios", "name": "PTE.DR. ARTURO HUMBERTO ILLIA"}, "type": "Feature", "geometry": {"coordinates": [-63.95644262, -31.16107976], "type": "Point"}}, {"properties": {"valido": true, "id": "622", "type": "primarios", "name": "SUBOFICIAL PRINCIPAL RAMON GUMERCINDO ACOSTA"}, "type": "Feature", "geometry": {"coordinates": [-64.11431485, -31.0227176], "type": "Point"}}, {"properties": {"valido": true, "id": "624", "type": "primarios", "name": "CIUDAD DE MALVINAS ARGENTINAS"}, "type": "Feature", "geometry": {"coordinates": [-64.05029, -31.37112], "type": "Point"}}, {"properties": {"valido": true, "id": "627", "type": "primarios", "name": "LEOPOLDO LUGONES"}, "type": "Feature", "geometry": {"coordinates": [-64.1667511, -31.280198], "type": "Point"}}, {"properties": {"valido": true, "id": "631", "type": "primarios", "name": "MANUEL SOLARES"}, "type": "Feature", "geometry": {"coordinates": [-64.43411, -31.65827], "type": "Point"}}, {"properties": {"valido": true, "id": "632", "type": "primarios", "name": "SAN MARTIN"}, "type": "Feature", "geometry": {"coordinates": [-64.43193394, -31.65346002], "type": "Point"}}, {"properties": {"valido": true, "id": "634", "type": "primarios", "name": "JOSE MARIA PAZ"}, "type": "Feature", "geometry": {"coordinates": [-64.417982, -31.657678], "type": "Point"}}, {"properties": {"valido": true, "id": "635", "type": "primarios", "name": "25 DE MAYO"}, "type": "Feature", "geometry": {"coordinates": [-64.287791, -31.81764], "type": "Point"}}, {"properties": {"valido": true, "id": "646", "type": "primarios", "name": "INDEPENDENCIA ARGENTINA"}, "type": "Feature", "geometry": {"coordinates": [-64.14755071, -31.56157213], "type": "Point"}}, {"properties": {"valido": true, "id": "647", "type": "primarios", "name": "DALMACIO VELEZ SARSFIELD"}, "type": "Feature", "geometry": {"coordinates": [-64.04534011, -31.51990138], "type": "Point"}}, {"properties": {"valido": true, "id": "651", "type": "primarios", "name": "JUAN JOSE PASO"}, "type": "Feature", "geometry": {"coordinates": [-64.4518214, -31.5339382], "type": "Point"}}, {"properties": {"valido": true, "id": "655", "type": "primarios", "name": "CATALINA B. DE BARON"}, "type": "Feature", "geometry": {"coordinates": [-64.2860098, -31.5249936], "type": "Point"}}, {"properties": {"valido": true, "id": "658", "type": "primarios", "name": "CORNELIO SAAVEDRA"}, "type": "Feature", "geometry": {"coordinates": [-64.2466309, -31.5523587], "type": "Point"}}, {"properties": {"valido": true, "id": "659", "type": "primarios", "name": "DOCTOR NICOLAS AVELLANEDA"}, "type": "Feature", "geometry": {"coordinates": [-64.4570711, -31.4935861], "type": "Point"}}, {"properties": {"valido": true, "id": "661", "type": "primarios", "name": "PABLO PIZZURNO"}, "type": "Feature", "geometry": {"coordinates": [-64.3556923, -31.5912799], "type": "Point"}}, {"properties": {"valido": true, "id": "662", "type": "primarios", "name": "LIBERTADOR GENERAL SAN MARTIN"}, "type": "Feature", "geometry": {"coordinates": [-64.14730467, -31.52710652], "type": "Point"}}, {"properties": {"valido": true, "id": "663", "type": "primarios", "name": "JOSE HERNANDEZ"}, "type": "Feature", "geometry": {"coordinates": [-64.3867526, -31.6158614], "type": "Point"}}, {"properties": {"valido": true, "id": "667", "type": "primarios", "name": "GENERAL MARTIN GUEMES"}, "type": "Feature", "geometry": {"coordinates": [-64.455516, -31.435524], "type": "Point"}}, {"properties": {"valido": true, "id": "672", "type": "primarios", "name": "REPUBLICA DE CHILE"}, "type": "Feature", "geometry": {"coordinates": [-64.07696886, -31.53338396], "type": "Point"}}, {"properties": {"valido": true, "id": "675", "type": "primarios", "name": "CURA ELEODORO FIERRO"}, "type": "Feature", "geometry": {"coordinates": [-64.43614449, -31.6463832], "type": "Point"}}, {"properties": {"valido": true, "id": "678", "type": "primarios", "name": "DOCTOR FLORENTINO FRANCISCO BUSTOS"}, "type": "Feature", "geometry": {"coordinates": [-64.19298343, -31.55786125], "type": "Point"}}, {"properties": {"valido": true, "id": "680", "type": "primarios", "name": "VICTOR MERCANTE"}, "type": "Feature", "geometry": {"coordinates": [-64.43726888, -31.65070313], "type": "Point"}}, {"properties": {"valido": true, "id": "683", "type": "primarios", "name": "REPUBLICA ITALIANA"}, "type": "Feature", "geometry": {"coordinates": [-64.40799878, -31.65751405], "type": "Point"}}, {"properties": {"valido": true, "id": "685", "type": "primarios", "name": "ATALIVA HERRERA"}, "type": "Feature", "geometry": {"coordinates": [-64.31704576, -31.80412311], "type": "Point"}}, {"properties": {"valido": true, "id": "686", "type": "primarios", "name": "JULIO ROBERTO BARRIENTOS"}, "type": "Feature", "geometry": {"coordinates": [-64.416463, -31.646223], "type": "Point"}}, {"properties": {"valido": true, "id": "688", "type": "primarios", "name": "CAPITAN LUIS C. CANDELARIA (ANEXO)"}, "type": "Feature", "geometry": {"coordinates": [-63.999796, -31.340951], "type": "Point"}}, {"properties": {"valido": true, "id": "689", "type": "primarios", "name": "POLO GODOY ROJO"}, "type": "Feature", "geometry": {"coordinates": [-64.175958, -31.29577], "type": "Point"}}, {"properties": {"valido": true, "id": "693", "type": "primarios", "name": "JOSE MARIA PAZ"}, "type": "Feature", "geometry": {"coordinates": [-64.22398345, -32.56698967], "type": "Point"}}, {"properties": {"valido": true, "id": "704", "type": "primarios", "name": "JUAN PABLO II"}, "type": "Feature", "geometry": {"coordinates": [-64.22217198, -31.45377782], "type": "Point"}}, {"properties": {"valido": true, "id": "705", "type": "primarios", "name": "JUAN PABLO II"}, "type": "Feature", "geometry": {"coordinates": [-64.22217198, -31.45377782], "type": "Point"}}, {"properties": {"valido": true, "id": "706", "type": "primarios", "name": "SAN JOSE ARTESANO"}, "type": "Feature", "geometry": {"coordinates": [-64.21155702, -31.44593993], "type": "Point"}}, {"properties": {"valido": true, "id": "707", "type": "primarios", "name": "PIO LEON"}, "type": "Feature", "geometry": {"coordinates": [-64.10400596, -30.98586611], "type": "Point"}}, {"properties": {"borrar_contador": 1, "name": "Mas mas pruebas", "valido": true, "id": 708, "ip": "127.0.0.1", "type": "primarios"}, "type": "Feature", "geometry": {"coordinates": [-64.3033218383789, -31.41652427529945], "type": "Point"}}], "type": "FeatureCollection"}