{"features": [{"geometry": {"type": "Point", "coordinates": [-64.164749, -31.277628]}, "id": "1", "type": "Feature", "properties": {"tipo_escuela": "ESCUELA MADRE", "nivel_educativo": "PRIMARIO", "ambito": "false", "name": "ESCUELA NOCTURNA - ANDRES PAJON -", "utiles": true, "valido": true, "type": "primarios"}}, {"geometry": {"type": "Point", "coordinates": [-64.141628, -31.480684]}, "id": "3", "type": "Feature", "properties": {"tipo_escuela": "ESCUELA MADRE", "nivel_educativo": "PRIMARIO", "ambito": "false", "name": "ESCUELA NOCTURNA - ANTARTIDA ARGENTINA -", "utiles": true, "valido": true, "type": "primarios"}}, {"geometry": {"type": "Point", "coordinates": [-64.052942, -31.375325]}, "id": "7", "type": "Feature", "properties": {"tipo_escuela": "ESCUELA MADRE", "nivel_educativo": "PRIMARIO", "ambito": "false", "name": "CENPA - MALVINAS ARGENTINAS", "utiles": true, "valido": true, "type": "primarios"}}, {"geometry": {"type": "Point", "coordinates": [-63.94474, -31.34548]}, "id": "9", "type": "Feature", "properties": {"tipo_escuela": "ESCUELA MADRE", "nivel_educativo": "PRIMARIO", "ambito": "false", "name": "C.E.N.P.A. - DOMINGO NOGAL -", "utiles": true, "valido": true, "type": "primarios"}}, {"geometry": {"type": "Point", "coordinates": [-64.41250155, -31.65408494]}, "id": "13", "type": "Feature", "properties": {"tipo_escuela": "ESCUELA MADRE", "nivel_educativo": "PRIMARIO", "ambito": "false", "name": "ESCUELA NOCTURNA GRAL. GUEMES", "utiles": true, "valido": true, "type": "primarios"}}, {"geometry": {"type": "Point", "coordinates": [-64.28776178, -31.81770411]}, "id": "14", "type": "Feature", "properties": {"tipo_escuela": "ESCUELA MADRE", "nivel_educativo": "PRIMARIO", "ambito": "false", "name": "ESCUELA NOCTURNA - BELISARIO ROLDAN -", "utiles": true, "valido": true, "type": "primarios"}}, {"geometry": {"type": "Point", "coordinates": [-64.3917061, -31.6147541]}, "id": "15", "type": "Feature", "properties": {"tipo_escuela": "ESCUELA MADRE", "nivel_educativo": "PRIMARIO", "ambito": "false", "name": "CENPA N\u00ba 22 DE VILLA DEL PRADO", "utiles": true, "valido": true, "type": "primarios"}}, {"geometry": {"type": "Point", "coordinates": [-64.09499567, -30.98086743]}, "id": "19", "type": "Feature", "properties": {"tipo_escuela": "ESCUELA MADRE", "nivel_educativo": "PRIMARIO", "ambito": "false", "name": "ESC. NOCTURNA JOSE MARIA PAZ", "utiles": true, "valido": true, "type": "primarios"}}, {"geometry": {"type": "Point", "coordinates": [-64.43152212, -31.65811994]}, "id": "20", "type": "Feature", "properties": {"tipo_escuela": "ESCUELA MADRE", "nivel_educativo": "PRIMARIO", "ambito": "false", "name": "C.A.P. NO.  4 - CASA DE LA CULTURA -", "utiles": true, "valido": true, "type": "primarios"}}, {"geometry": {"type": "Point", "coordinates": [-64.05782823, -31.02272787]}, "id": "22", "type": "Feature", "properties": {"tipo_escuela": "ESCUELA MADRE", "nivel_educativo": "PRIMARIO", "ambito": "false", "name": "CENPA COLONIA CAROYA", "utiles": true, "valido": true, "type": "primarios"}}, {"geometry": {"type": "Point", "coordinates": [-64.1918342, -31.50509493]}, "id": "26", "type": "Feature", "properties": {"tipo_escuela": "ESCUELA MADRE", "nivel_educativo": "PRIMARIO", "ambito": "false", "name": "C.E.N.P.A. - VILLA OBISPO ANGELELLI -", "utiles": true, "valido": true, "type": "primarios"}}, {"geometry": {"type": "Point", "coordinates": [-64.22446361, -31.48072355]}, "id": "27", "type": "Feature", "properties": {"tipo_escuela": "ESCUELA MADRE", "nivel_educativo": "PRIMARIO", "ambito": "false", "name": "ESC. NOCT. CIUDAD DE BS. AS.", "utiles": true, "valido": true, "type": "primarios"}}, {"geometry": {"type": "Point", "coordinates": [-64.22446361, -31.48072355]}, "id": "28", "type": "Feature", "properties": {"tipo_escuela": "EXTENSION AULICA", "nivel_educativo": "PRIMARIO", "ambito": "false", "name": "ESC. NOCT. CIUDAD DE BS. AS. EXT AUL VICENTE FORESTIERI", "utiles": true, "valido": true, "type": "primarios"}}, {"geometry": {"type": "Point", "coordinates": [-64.27016, -31.338878]}, "id": "29", "type": "Feature", "properties": {"tipo_escuela": "ESCUELA MADRE", "nivel_educativo": "PRIMARIO", "ambito": "false", "name": "ESCUELA NOCTURNA - DOMINGO FAUSTINO SARMIENTO -", "utiles": true, "valido": true, "type": "primarios"}}, {"geometry": {"type": "Point", "coordinates": [-64.27016, -31.338878]}, "id": "30", "type": "Feature", "properties": {"tipo_escuela": "EXTENSION AULICA", "nivel_educativo": "PRIMARIO", "ambito": "false", "name": "ESCUELA NOCTURNA DOMINGO FAUSTINO SARMIENTO EXT AUL PERIFERICOS DE ARGUELLO", "utiles": true, "valido": true, "type": "primarios"}}, {"geometry": {"type": "Point", "coordinates": [-64.15211142, -31.37292356]}, "id": "34", "type": "Feature", "properties": {"tipo_escuela": "ESCUELA MADRE", "nivel_educativo": "PRIMARIO", "ambito": "false", "name": "ESCUELA NOCTURNA - FRAY LUIS BELTRAN -", "utiles": true, "valido": true, "type": "primarios"}}, {"geometry": {"type": "Point", "coordinates": [-64.17505521, -31.31345235]}, "id": "37", "type": "Feature", "properties": {"tipo_escuela": "ESCUELA MADRE", "nivel_educativo": "PRIMARIO", "ambito": "false", "name": "ESCUELA NOCTURNA - GREGORIA MATORRAS DE SAN MARTIN -", "utiles": true, "valido": true, "type": "primarios"}}, {"geometry": {"type": "Point", "coordinates": [-64.255586, -31.33168535]}, "id": "45", "type": "Feature", "properties": {"tipo_escuela": "ESCUELA MADRE", "nivel_educativo": "PRIMARIO", "ambito": "false", "name": "ESCUELA NOCTURNA - JOSE MANUEL ESTRADA -", "utiles": true, "valido": true, "type": "primarios"}}, {"geometry": {"type": "Point", "coordinates": [-64.2229126, -31.4713569]}, "id": "49", "type": "Feature", "properties": {"tipo_escuela": "ESCUELA MADRE", "nivel_educativo": "PRIMARIO", "ambito": "false", "name": "ESCUELA NOCTURNA LUIS MARIA DRAGO", "utiles": true, "valido": true, "type": "primarios"}}, {"geometry": {"type": "Point", "coordinates": [-64.2229126, -31.4713569]}, "id": "50", "type": "Feature", "properties": {"tipo_escuela": "EXTENSION AULICA", "nivel_educativo": "PRIMARIO", "ambito": "false", "name": "ESCUELA NOCTURNA LUIS MARIA DRAGO EXT. AULICA CIUDAD UNIVERSITARIA", "utiles": true, "valido": true, "type": "primarios"}}, {"geometry": {"type": "Point", "coordinates": [-64.2229126, -31.4713569]}, "id": "51", "type": "Feature", "properties": {"tipo_escuela": "EXTENSION AULICA", "nivel_educativo": "PRIMARIO", "ambito": "false", "name": "ESCUELA NOCTURNA LUIS MAR\u00cdA DRAGO EXTENSI\u00d3N AULICA ARTURO ILLIA", "utiles": true, "valido": true, "type": "primarios"}}, {"geometry": {"type": "Point", "coordinates": [-64.2229126, -31.4713569]}, "id": "52", "type": "Feature", "properties": {"tipo_escuela": "EXTENSION AULICA", "nivel_educativo": "PRIMARIO", "ambito": "false", "name": "ESCUELA NOCTURNA LUIS MAR\u00cdA DRAGO EXTENSI\u00d3N AULICA JUBILADOS Y PENSIONADOS", "utiles": true, "valido": true, "type": "primarios"}}, {"geometry": {"type": "Point", "coordinates": [-64.21187791, -31.4409735]}, "id": "54", "type": "Feature", "properties": {"tipo_escuela": "ESCUELA MADRE", "nivel_educativo": "PRIMARIO", "ambito": "false", "name": "ESCUELA NOCTURNA - MANUELA PEDRAZA  -", "utiles": true, "valido": true, "type": "primarios"}}, {"geometry": {"type": "Point", "coordinates": [-64.22170785, -31.33947811]}, "id": "55", "type": "Feature", "properties": {"tipo_escuela": "ESCUELA MADRE", "nivel_educativo": "PRIMARIO", "ambito": "false", "name": "ESC. NOCT. MERCEDITAS DE SAN MARTIN", "utiles": true, "valido": true, "type": "primarios"}}, {"geometry": {"type": "Point", "coordinates": [-64.22170785, -31.33947811]}, "id": "56", "type": "Feature", "properties": {"tipo_escuela": "EXTENSION AULICA", "nivel_educativo": "PRIMARIO", "ambito": "false", "name": "ESC. NOCT. MERCEDITAS DE SAN MARTIN EXT. AULICA CENTRO VECINAL B\u00b0 LOS BOULEVARES", "utiles": true, "valido": true, "type": "primarios"}}, {"geometry": {"type": "Point", "coordinates": [-64.1410761, -31.38851332]}, "id": "57", "type": "Feature", "properties": {"tipo_escuela": "ESCUELA MADRE", "nivel_educativo": "PRIMARIO", "ambito": "false", "name": "ESCUELA NOCTURNA - PADRE JOSE LEON TORRES -", "utiles": true, "valido": true, "type": "primarios"}}, {"geometry": {"type": "Point", "coordinates": [-64.08889159, -31.46601026]}, "id": "58", "type": "Feature", "properties": {"tipo_escuela": "ESCUELA MADRE", "nivel_educativo": "PRIMARIO", "ambito": "false", "name": "ESC. NOCTURNA PADRE GRENON", "utiles": true, "valido": true, "type": "primarios"}}, {"geometry": {"type": "Point", "coordinates": [-64.17125377, -31.37977658]}, "id": "60", "type": "Feature", "properties": {"tipo_escuela": "ESCUELA MADRE", "nivel_educativo": "PRIMARIO", "ambito": "false", "name": "ESCUELA NOCTURNA - PROFESOR MANUEL GREGORIO OLIVA -", "utiles": true, "valido": true, "type": "primarios"}}, {"geometry": {"type": "Point", "coordinates": [-64.14047155, -31.37792329]}, "id": "61", "type": "Feature", "properties": {"tipo_escuela": "ESCUELA MADRE", "nivel_educativo": "PRIMARIO", "ambito": "false", "name": "ESCUELA NOCTURNA - REPUBLICA DEL LIBANO -", "utiles": true, "valido": true, "type": "primarios"}}, {"geometry": {"type": "Point", "coordinates": [-64.14047155, -31.37792329]}, "id": "62", "type": "Feature", "properties": {"tipo_escuela": "EXTENSION AULICA", "nivel_educativo": "PRIMARIO", "ambito": "false", "name": "ESCUELA NOCTURNA - REPUBLICA DEL LIBANO - EXT AUL B\u00b0 GENERAL BELGRANO", "utiles": true, "valido": true, "type": "primarios"}}, {"geometry": {"type": "Point", "coordinates": [-64.086382, -31.476954]}, "id": "65", "type": "Feature", "properties": {"tipo_escuela": "ESCUELA MADRE", "nivel_educativo": "PRIMARIO", "ambito": "false", "name": "Esc Noct San Lorenzo", "utiles": true, "valido": true, "type": "primarios"}}, {"geometry": {"type": "Point", "coordinates": [-64.17898138, -31.33871483]}, "id": "66", "type": "Feature", "properties": {"tipo_escuela": "ESCUELA MADRE", "nivel_educativo": "PRIMARIO", "ambito": "false", "name": "ESCUELA NOCTURNA - HEROES DE MALVINAS -", "utiles": true, "valido": true, "type": "primarios"}}, {"geometry": {"type": "Point", "coordinates": [-64.16660992, -31.34344031]}, "id": "67", "type": "Feature", "properties": {"tipo_escuela": "ESCUELA MADRE", "nivel_educativo": "PRIMARIO", "ambito": "false", "name": "ESCUELA NOCTURNA", "utiles": true, "valido": true, "type": "primarios"}}, {"geometry": {"type": "Point", "coordinates": [-64.11068811, -31.46100998]}, "id": "83", "type": "Feature", "properties": {"tipo_escuela": "ESCUELA MADRE", "nivel_educativo": "PRIMARIO", "ambito": "false", "name": "CENPA Libertador San Mart\u00edn", "utiles": true, "valido": true, "type": "primarios"}}, {"geometry": {"type": "Point", "coordinates": [-64.19073323, -31.4582739]}, "id": "84", "type": "Feature", "properties": {"tipo_escuela": "ESCUELA MADRE", "nivel_educativo": "PRIMARIO", "ambito": "false", "name": "CENPA HOGAR DE DIA - ARTURO ILLIA", "utiles": true, "valido": true, "type": "primarios"}}, {"geometry": {"type": "Point", "coordinates": [-64.15652448, -31.36444466]}, "id": "85", "type": "Feature", "properties": {"tipo_escuela": "ESCUELA MADRE", "nivel_educativo": "PRIMARIO", "ambito": "false", "name": "C.E.N.P.A. - ESCUELA ESCRIBANO JUAN PAREDES -", "utiles": true, "valido": true, "type": "primarios"}}, {"geometry": {"type": "Point", "coordinates": [-64.13552334, -31.48060666]}, "id": "86", "type": "Feature", "properties": {"tipo_escuela": "ESCUELA ANEXO", "nivel_educativo": "PRIMARIO", "ambito": "false", "name": "C.A.P. - UNION VETERANOS DE MALVINAS -", "utiles": true, "valido": true, "type": "primarios"}}, {"geometry": {"type": "Point", "coordinates": [-64.06700833, -31.23881398]}, "id": "95", "type": "Feature", "properties": {"tipo_escuela": "ESCUELA MADRE", "nivel_educativo": "PRIMARIO", "ambito": "false", "name": "CENPA COLONIA TIROLESA", "utiles": true, "valido": true, "type": "primarios"}}, {"geometry": {"type": "Point", "coordinates": [-64.418154, -31.65746439]}, "id": "96", "type": "Feature", "properties": {"tipo_escuela": "ESCUELA MADRE", "nivel_educativo": "PRIMARIO", "ambito": "false", "name": "CAP N\u00ba 11", "utiles": true, "valido": true, "type": "primarios"}}, {"geometry": {"type": "Point", "coordinates": [-64.19022928, -31.50819626]}, "id": "97", "type": "Feature", "properties": {"tipo_escuela": "ESCUELA MADRE", "nivel_educativo": "PRIMARIO", "ambito": "false", "name": "CENPA CREER Y SER", "utiles": true, "valido": true, "type": "primarios"}}, {"geometry": {"type": "Point", "coordinates": [-64.14930512, -31.49677436]}, "id": "98", "type": "Feature", "properties": {"tipo_escuela": "ESCUELA ANEXO", "nivel_educativo": "PRIMARIO", "ambito": "false", "name": "ESCUELA NOCTURNA PAULO FREIRE ANEXO I", "utiles": true, "valido": true, "type": "primarios"}}, {"geometry": {"type": "Point", "coordinates": [-64.09360829, -31.40203955]}, "id": "104", "type": "Feature", "properties": {"tipo_escuela": "ESCUELA MADRE", "nivel_educativo": "PRIMARIO", "ambito": "false", "name": "C.E.N.P.A. - VILLA CHACRA DE LA MERCED - B -", "utiles": true, "valido": true, "type": "primarios"}}, {"geometry": {"type": "Point", "coordinates": [-64.26748922, -31.31589665]}, "id": "110", "type": "Feature", "properties": {"tipo_escuela": "ESCUELA MADRE", "nivel_educativo": "PRIMARIO", "ambito": "false", "name": "CENPA EL VAGON", "utiles": true, "valido": true, "type": "primarios"}}, {"geometry": {"type": "Point", "coordinates": [-64.23090045, -31.54723527]}, "id": "127", "type": "Feature", "properties": {"tipo_escuela": "ESCUELA ANEXO", "nivel_educativo": "PRIMARIO", "ambito": "false", "name": "ESCUELA NOCTURNA - ANTARTIDA ARGENTINA ANEXO I", "utiles": true, "valido": true, "type": "primarios"}}, {"geometry": {"type": "Point", "coordinates": [-64.202155, -31.45125239]}, "id": "137", "type": "Feature", "properties": {"tipo_escuela": "ESCUELA ANEXO", "nivel_educativo": "PRIMARIO", "ambito": "false", "name": "ESCUELA NOCTURNA PAULO FREIRE ANEXO II", "utiles": true, "valido": true, "type": "primarios"}}, {"geometry": {"type": "Point", "coordinates": [-64.19313476, -31.43968037]}, "id": "145", "type": "Feature", "properties": {"tipo_escuela": "ESCUELA MADRE", "nivel_educativo": "PRIMARIO", "ambito": "false", "name": "INSTITUTO HELEN KELLER", "utiles": true, "valido": true, "type": "primarios"}}, {"geometry": {"type": "Point", "coordinates": [-64.19335636, -31.44035432]}, "id": "146", "type": "Feature", "properties": {"tipo_escuela": "ESCUELA MADRE", "nivel_educativo": "PRIMARIO", "ambito": "false", "name": "INSTITUTO DEL LENGUAJE Y LA AUDICION CORDOBA", "utiles": true, "valido": true, "type": "primarios"}}, {"geometry": {"type": "Point", "coordinates": [-64.19327, -31.44116]}, "id": "156", "type": "Feature", "properties": {"tipo_escuela": "ESCUELA MADRE", "nivel_educativo": "PRIMARIO", "ambito": "false", "name": "ESCUELA ESPECIAL DR. DOMINGO CABRED", "utiles": true, "valido": true, "type": "primarios"}}, {"geometry": {"type": "Point", "coordinates": [-63.947652, -31.343658]}, "id": "159", "type": "Feature", "properties": {"tipo_escuela": "ESCUELA ANEXO", "nivel_educativo": "PRIMARIO", "ambito": "false", "name": "ESCUELA ESPECIAL DR. JERONIMO MORAGAS ANEXO MONTECRISTO", "utiles": true, "valido": true, "type": "primarios"}}, {"geometry": {"type": "Point", "coordinates": [-64.14209, -31.13537]}, "id": "162", "type": "Feature", "properties": {"tipo_escuela": "ESCUELA ANEXO", "nivel_educativo": "PRIMARIO", "ambito": "false", "name": "ESCUELA ESPECIAL ESTACION GENERAL PAZ", "utiles": true, "valido": true, "type": "primarios"}}, {"geometry": {"type": "Point", "coordinates": [-64.248411, -31.379195]}, "id": "166", "type": "Feature", "properties": {"tipo_escuela": "ESCUELA ANEXO", "nivel_educativo": "PRIMARIO", "ambito": "false", "name": "ESCUELA ESPECIAL NO. 19 BEATRIZ ANGELICA MARTINEZ ALLIO ANEXO ESCUELA PANAMA", "utiles": true, "valido": true, "type": "primarios"}}, {"geometry": {"type": "Point", "coordinates": [-64.43294484, -31.64422418]}, "id": "169", "type": "Feature", "properties": {"tipo_escuela": "ESCUELA ANEXO", "nivel_educativo": "PRIMARIO", "ambito": "false", "name": "ESCUELA ESPECIAL DRA. CAROLINA ANA MOSCA ANEXO ALTA GRACIA", "utiles": true, "valido": true, "type": "primarios"}}, {"geometry": {"type": "Point", "coordinates": [-64.19302033, -31.43980722]}, "id": "170", "type": "Feature", "properties": {"tipo_escuela": "ESCUELA MADRE", "nivel_educativo": "PRIMARIO", "ambito": "false", "name": "ESCUELA ESPECIAL NO. 19 BEATRIZ ANGELICA MARTINEZ ALLIO", "utiles": true, "valido": true, "type": "primarios"}}, {"geometry": {"type": "Point", "coordinates": [-64.16054769, -31.37902792]}, "id": "172", "type": "Feature", "properties": {"tipo_escuela": "ESCUELA MADRE", "nivel_educativo": "PRIMARIO", "ambito": "URBANO", "name": "CURA BROCHERO", "utiles": true, "valido": true, "type": "primarios"}}, {"geometry": {"type": "Point", "coordinates": [-64.16008345, -31.38888346]}, "id": "173", "type": "Feature", "properties": {"tipo_escuela": "ESCUELA MADRE", "nivel_educativo": "PRIMARIO", "ambito": "URBANO", "name": "VICENTE FIDEL LOPEZ", "utiles": true, "valido": true, "type": "primarios"}}, {"geometry": {"type": "Point", "coordinates": [-64.107881, -31.359108]}, "id": "175", "type": "Feature", "properties": {"tipo_escuela": "ESCUELA MADRE", "nivel_educativo": "PRIMARIO", "ambito": "URBANO", "name": "OBISPO ESQUIU", "utiles": true, "valido": true, "type": "primarios"}}, {"geometry": {"type": "Point", "coordinates": [-64.15233386, -31.37356396]}, "id": "176", "type": "Feature", "properties": {"tipo_escuela": "ESCUELA MADRE", "nivel_educativo": "PRIMARIO", "ambito": "URBANO", "name": "GENERAL SANTIAGO H. DEL CASTILLO", "utiles": true, "valido": true, "type": "primarios"}}, {"geometry": {"type": "Point", "coordinates": [-64.13429508, -31.3851464]}, "id": "177", "type": "Feature", "properties": {"tipo_escuela": "ESCUELA MADRE", "nivel_educativo": "PRIMARIO", "ambito": "URBANO", "name": "MATEO JOSE LUQUE", "utiles": true, "valido": true, "type": "primarios"}}, {"geometry": {"type": "Point", "coordinates": [-64.12915309, -31.385403]}, "id": "178", "type": "Feature", "properties": {"tipo_escuela": "ESCUELA MADRE", "nivel_educativo": "PRIMARIO", "ambito": "URBANO", "name": "FRAY MAMERTO ESQUIU", "utiles": true, "valido": true, "type": "primarios"}}, {"geometry": {"type": "Point", "coordinates": [-64.14107183, -31.38862303]}, "id": "179", "type": "Feature", "properties": {"tipo_escuela": "ESCUELA MADRE", "nivel_educativo": "PRIMARIO", "ambito": "URBANO", "name": "SARGENTO CABRAL", "utiles": true, "valido": true, "type": "primarios"}}, {"geometry": {"type": "Point", "coordinates": [-64.13546595, -31.37105978]}, "id": "180", "type": "Feature", "properties": {"tipo_escuela": "ESCUELA MADRE", "nivel_educativo": "PRIMARIO", "ambito": "URBANO", "name": "MANUEL BELGRANO", "utiles": true, "valido": true, "type": "primarios"}}, {"geometry": {"type": "Point", "coordinates": [-64.14030652, -31.37791706]}, "id": "181", "type": "Feature", "properties": {"tipo_escuela": "ESCUELA MADRE", "nivel_educativo": "PRIMARIO", "ambito": "URBANO", "name": "JOSE MARIA PAZ", "utiles": true, "valido": true, "type": "primarios"}}, {"geometry": {"type": "Point", "coordinates": [-64.12283224, -31.38857969]}, "id": "182", "type": "Feature", "properties": {"tipo_escuela": "ESCUELA MADRE", "nivel_educativo": "PRIMARIO", "ambito": "URBANO", "name": "RABINDRANATH TAGORE", "utiles": true, "valido": true, "type": "primarios"}}, {"geometry": {"type": "Point", "coordinates": [-64.14717373, -31.39555667]}, "id": "184", "type": "Feature", "properties": {"tipo_escuela": "ESCUELA MADRE", "nivel_educativo": "PRIMARIO", "ambito": "URBANO", "name": "PROFESOR JOSE TORIBIO HERNANDEZ", "utiles": true, "valido": true, "type": "primarios"}}, {"geometry": {"type": "Point", "coordinates": [-64.14174449, -31.3930408]}, "id": "185", "type": "Feature", "properties": {"tipo_escuela": "ESCUELA MADRE", "nivel_educativo": "PRIMARIO", "ambito": "URBANO", "name": "ANTARTIDA ARGENTINA", "utiles": true, "valido": true, "type": "primarios"}}, {"geometry": {"type": "Point", "coordinates": [-64.13764259, -31.39237449]}, "id": "186", "type": "Feature", "properties": {"tipo_escuela": "ESCUELA MADRE", "nivel_educativo": "PRIMARIO", "ambito": "URBANO", "name": "ALMIRANTE GUILLERMO BROWN", "utiles": true, "valido": true, "type": "primarios"}}, {"geometry": {"type": "Point", "coordinates": [-64.10749237, -31.38186328]}, "id": "187", "type": "Feature", "properties": {"tipo_escuela": "ESCUELA MADRE", "nivel_educativo": "PRIMARIO", "ambito": "URBANO", "name": "REPUBLICA DE LA INDIA", "utiles": true, "valido": true, "type": "primarios"}}, {"geometry": {"type": "Point", "coordinates": [-64.15032482, -31.39175217]}, "id": "188", "type": "Feature", "properties": {"tipo_escuela": "ESCUELA MADRE", "nivel_educativo": "PRIMARIO", "ambito": "URBANO", "name": "ARISTOBULO DEL VALLE", "utiles": true, "valido": true, "type": "primarios"}}, {"geometry": {"type": "Point", "coordinates": [-64.15284657, -31.3764982]}, "id": "190", "type": "Feature", "properties": {"tipo_escuela": "ESCUELA MADRE", "nivel_educativo": "PRIMARIO", "ambito": "URBANO", "name": "GOBERNADOR JUSTO PAEZ MOLINA", "utiles": true, "valido": true, "type": "primarios"}}, {"geometry": {"type": "Point", "coordinates": [-64.153291, -31.383497]}, "id": "191", "type": "Feature", "properties": {"tipo_escuela": "ESCUELA MADRE", "nivel_educativo": "PRIMARIO", "ambito": "URBANO", "name": "PADRE DIEGO DE TORRES", "utiles": true, "valido": true, "type": "primarios"}}, {"geometry": {"type": "Point", "coordinates": [-64.11877003, -31.38788278]}, "id": "192", "type": "Feature", "properties": {"tipo_escuela": "ESCUELA MADRE", "nivel_educativo": "PRIMARIO", "ambito": "URBANO", "name": "DOCTOR EMILIO ESTEBAN SANCHEZ", "utiles": true, "valido": true, "type": "primarios"}}, {"geometry": {"type": "Point", "coordinates": [-64.14270523, -31.36951892]}, "id": "193", "type": "Feature", "properties": {"tipo_escuela": "ESCUELA MADRE", "nivel_educativo": "PRIMARIO", "ambito": "URBANO", "name": "UNION LATINOAMERICANA", "utiles": true, "valido": true, "type": "primarios"}}, {"geometry": {"type": "Point", "coordinates": [-64.20352625, -31.37454499]}, "id": "196", "type": "Feature", "properties": {"tipo_escuela": "ESCUELA MADRE", "nivel_educativo": "PRIMARIO", "ambito": "URBANO", "name": "PROVINCIA DE MISIONES", "utiles": true, "valido": true, "type": "primarios"}}, {"geometry": {"type": "Point", "coordinates": [-64.22464419, -31.34358959]}, "id": "197", "type": "Feature", "properties": {"tipo_escuela": "ESCUELA MADRE", "nivel_educativo": "PRIMARIO", "ambito": "URBANO", "name": "JUAN MARIA GUTIERREZ", "utiles": true, "valido": true, "type": "primarios"}}, {"geometry": {"type": "Point", "coordinates": [-64.20784329, -31.37431499]}, "id": "198", "type": "Feature", "properties": {"tipo_escuela": "ESCUELA MADRE", "nivel_educativo": "PRIMARIO", "ambito": "URBANO", "name": "MAHATMA GANDHI", "utiles": true, "valido": true, "type": "primarios"}}, {"geometry": {"type": "Point", "coordinates": [-64.19480523, -31.36380237]}, "id": "200", "type": "Feature", "properties": {"tipo_escuela": "ESCUELA MADRE", "nivel_educativo": "PRIMARIO", "ambito": "URBANO", "name": "HONORATO LACONI", "utiles": true, "valido": true, "type": "primarios"}}, {"geometry": {"type": "Point", "coordinates": [-64.21078537, -31.36260783]}, "id": "201", "type": "Feature", "properties": {"tipo_escuela": "ESCUELA MADRE", "nivel_educativo": "PRIMARIO", "ambito": "URBANO", "name": "LEOPOLDO LUGONES", "utiles": true, "valido": true, "type": "primarios"}}, {"geometry": {"type": "Point", "coordinates": [-64.2225948, -31.35990929]}, "id": "202", "type": "Feature", "properties": {"tipo_escuela": "ESCUELA MADRE", "nivel_educativo": "PRIMARIO", "ambito": "URBANO", "name": "MAESTROS PUNTANOS", "utiles": true, "valido": true, "type": "primarios"}}, {"geometry": {"type": "Point", "coordinates": [-64.17114638, -31.37972522]}, "id": "206", "type": "Feature", "properties": {"tipo_escuela": "ESCUELA MADRE", "nivel_educativo": "PRIMARIO", "ambito": "URBANO", "name": "RAFAELA SANCHEZ DE CALDELARI", "utiles": true, "valido": true, "type": "primarios"}}, {"geometry": {"type": "Point", "coordinates": [-64.17312797, -31.37539346]}, "id": "207", "type": "Feature", "properties": {"tipo_escuela": "ESCUELA MADRE", "nivel_educativo": "PRIMARIO", "ambito": "URBANO", "name": "FRANCISCO ANTONIO RIZZUTO", "utiles": true, "valido": true, "type": "primarios"}}, {"geometry": {"type": "Point", "coordinates": [-64.14752944, -31.3422874]}, "id": "208", "type": "Feature", "properties": {"tipo_escuela": "ESCUELA MADRE", "nivel_educativo": "PRIMARIO", "ambito": "URBANO", "name": "OLEGARIO VICTOR ANDRADE", "utiles": true, "valido": true, "type": "primarios"}}, {"geometry": {"type": "Point", "coordinates": [-64.11681227, -31.32123448]}, "id": "209", "type": "Feature", "properties": {"tipo_escuela": "ESCUELA MADRE", "nivel_educativo": "PRIMARIO", "ambito": "URBANO", "name": "FLORENCIO SANCHEZ", "utiles": true, "valido": true, "type": "primarios"}}, {"geometry": {"type": "Point", "coordinates": [-64.15803621, -31.3578393]}, "id": "210", "type": "Feature", "properties": {"tipo_escuela": "ESCUELA MADRE", "nivel_educativo": "PRIMARIO", "ambito": "URBANO", "name": "RICARDO ROJAS", "utiles": true, "valido": true, "type": "primarios"}}, {"geometry": {"type": "Point", "coordinates": [-64.17508502, -31.32489286]}, "id": "211", "type": "Feature", "properties": {"tipo_escuela": "ESCUELA MADRE", "nivel_educativo": "PRIMARIO", "ambito": "URBANO", "name": "GREGORIA MATORRAS DE SAN MARTIN", "utiles": true, "valido": true, "type": "primarios"}}, {"geometry": {"type": "Point", "coordinates": [-64.17879222, -31.3387086]}, "id": "212", "type": "Feature", "properties": {"tipo_escuela": "ESCUELA MADRE", "nivel_educativo": "PRIMARIO", "ambito": "URBANO", "name": "NACIONES UNIDAS", "utiles": true, "valido": true, "type": "primarios"}}, {"geometry": {"type": "Point", "coordinates": [-64.17498447, -31.36775486]}, "id": "213", "type": "Feature", "properties": {"tipo_escuela": "ESCUELA MADRE", "nivel_educativo": "PRIMARIO", "ambito": "URBANO", "name": "PAULA ALBARRACIN DE SARMIENTO", "utiles": true, "valido": true, "type": "primarios"}}, {"geometry": {"type": "Point", "coordinates": [-64.180323, -31.349536]}, "id": "214", "type": "Feature", "properties": {"tipo_escuela": "ESCUELA MADRE", "nivel_educativo": "PRIMARIO", "ambito": "URBANO", "name": "JORGE NEWBERY", "utiles": true, "valido": true, "type": "primarios"}}, {"geometry": {"type": "Point", "coordinates": [-64.17503562, -31.31357567]}, "id": "218", "type": "Feature", "properties": {"tipo_escuela": "ESCUELA MADRE", "nivel_educativo": "PRIMARIO", "ambito": "URBANO", "name": "U.N.E.S.C.O.", "utiles": true, "valido": true, "type": "primarios"}}, {"geometry": {"type": "Point", "coordinates": [-64.18206501, -31.36768216]}, "id": "219", "type": "Feature", "properties": {"tipo_escuela": "ESCUELA MADRE", "nivel_educativo": "PRIMARIO", "ambito": "URBANO", "name": "FRANCISCO VIDAL", "utiles": true, "valido": true, "type": "primarios"}}, {"geometry": {"type": "Point", "coordinates": [-64.16735444, -31.36342469]}, "id": "220", "type": "Feature", "properties": {"tipo_escuela": "ESCUELA MADRE", "nivel_educativo": "PRIMARIO", "ambito": "URBANO", "name": "DOCTOR HENOCH DOMINGO AGUIAR", "utiles": true, "valido": true, "type": "primarios"}}, {"geometry": {"type": "Point", "coordinates": [-64.23494688, -31.3727755]}, "id": "221", "type": "Feature", "properties": {"tipo_escuela": "ESCUELA MADRE", "nivel_educativo": "PRIMARIO", "ambito": "URBANO", "name": "JUAN ZORRILLA DE SAN MARTIN", "utiles": true, "valido": true, "type": "primarios"}}, {"geometry": {"type": "Point", "coordinates": [-64.27454043, -31.34410675]}, "id": "222", "type": "Feature", "properties": {"tipo_escuela": "ESCUELA MADRE", "nivel_educativo": "PRIMARIO", "ambito": "URBANO", "name": "ELISA KOPSTEIN DE LITVACK", "utiles": true, "valido": true, "type": "primarios"}}, {"geometry": {"type": "Point", "coordinates": [-64.25260074, -31.36121289]}, "id": "223", "type": "Feature", "properties": {"tipo_escuela": "ESCUELA MADRE", "nivel_educativo": "PRIMARIO", "ambito": "URBANO", "name": "RICARDO PALMA", "utiles": true, "valido": true, "type": "primarios"}}, {"geometry": {"type": "Point", "coordinates": [-64.27018462, -31.33887363]}, "id": "224", "type": "Feature", "properties": {"tipo_escuela": "ESCUELA MADRE", "nivel_educativo": "PRIMARIO", "ambito": "URBANO", "name": "MARTIN MIGUEL DE GUEMES", "utiles": true, "valido": true, "type": "primarios"}}, {"geometry": {"type": "Point", "coordinates": [-64.23122389, -31.36412311]}, "id": "225", "type": "Feature", "properties": {"tipo_escuela": "ESCUELA MADRE", "nivel_educativo": "PRIMARIO", "ambito": "URBANO", "name": "PRIMERA JUNTA", "utiles": true, "valido": true, "type": "primarios"}}, {"geometry": {"type": "Point", "coordinates": [-64.26207616, -31.32553606]}, "id": "227", "type": "Feature", "properties": {"tipo_escuela": "ESCUELA MADRE", "nivel_educativo": "PRIMARIO", "ambito": "URBANO", "name": "NI\u00d1AS DE AYOHUMA", "utiles": true, "valido": true, "type": "primarios"}}, {"geometry": {"type": "Point", "coordinates": [-64.2584271, -31.33563903]}, "id": "228", "type": "Feature", "properties": {"tipo_escuela": "ESCUELA MADRE", "nivel_educativo": "PRIMARIO", "ambito": "URBANO", "name": "JAVIER LAZCANO COLODRERO", "utiles": true, "valido": true, "type": "primarios"}}, {"geometry": {"type": "Point", "coordinates": [-64.24726458, -31.34440905]}, "id": "229", "type": "Feature", "properties": {"tipo_escuela": "ESCUELA MADRE", "nivel_educativo": "PRIMARIO", "ambito": "URBANO", "name": "DOCTOR ALEJANDRO GALLARDO", "utiles": true, "valido": true, "type": "primarios"}}, {"geometry": {"type": "Point", "coordinates": [-64.261024, -31.32147454]}, "id": "230", "type": "Feature", "properties": {"tipo_escuela": "ESCUELA MADRE", "nivel_educativo": "PRIMARIO", "ambito": "URBANO", "name": "MODESTA RODRIGUEZ", "utiles": true, "valido": true, "type": "primarios"}}, {"geometry": {"type": "Point", "coordinates": [-64.211803, -31.377053]}, "id": "236", "type": "Feature", "properties": {"tipo_escuela": "ESCUELA MADRE", "nivel_educativo": "PRIMARIO", "ambito": "URBANO", "name": "CONGRESO DE TUCUMAN", "utiles": true, "valido": true, "type": "primarios"}}, {"geometry": {"type": "Point", "coordinates": [-64.22090907, -31.37173934]}, "id": "241", "type": "Feature", "properties": {"tipo_escuela": "ESCUELA MADRE", "nivel_educativo": "PRIMARIO", "ambito": "URBANO", "name": "DR. MIGUEL RODRIGUEZ DE LA TORRE", "utiles": true, "valido": true, "type": "primarios"}}, {"geometry": {"type": "Point", "coordinates": [-64.24812339, -31.37918888]}, "id": "244", "type": "Feature", "properties": {"tipo_escuela": "ESCUELA MADRE", "nivel_educativo": "PRIMARIO", "ambito": "URBANO", "name": "REPUBLICA DE PANAMA", "utiles": true, "valido": true, "type": "primarios"}}, {"geometry": {"type": "Point", "coordinates": [-64.23837243, -31.3808307]}, "id": "245", "type": "Feature", "properties": {"tipo_escuela": "ESCUELA MADRE", "nivel_educativo": "PRIMARIO", "ambito": "URBANO", "name": "REPUBLICA DEL LIBANO", "utiles": true, "valido": true, "type": "primarios"}}, {"geometry": {"type": "Point", "coordinates": [-64.24607679, -31.33191067]}, "id": "246", "type": "Feature", "properties": {"tipo_escuela": "ESCUELA MADRE", "nivel_educativo": "PRIMARIO", "ambito": "URBANO", "name": "MARTHA ALCIRA  SALOTTI", "utiles": true, "valido": true, "type": "primarios"}}, {"geometry": {"type": "Point", "coordinates": [-64.24657163, -31.33668285]}, "id": "247", "type": "Feature", "properties": {"tipo_escuela": "ESCUELA MADRE", "nivel_educativo": "PRIMARIO", "ambito": "URBANO", "name": "RICARDO NASSIF", "utiles": true, "valido": true, "type": "primarios"}}, {"geometry": {"type": "Point", "coordinates": [-64.242476, -31.333523]}, "id": "248", "type": "Feature", "properties": {"tipo_escuela": "ESCUELA MADRE", "nivel_educativo": "PRIMARIO", "ambito": "URBANO", "name": "HUGO LEONELLI", "utiles": true, "valido": true, "type": "primarios"}}, {"geometry": {"type": "Point", "coordinates": [-64.20426503, -31.48096988]}, "id": "276", "type": "Feature", "properties": {"tipo_escuela": "ESCUELA MADRE", "nivel_educativo": "PRIMARIO", "ambito": "URBANO", "name": "ALEJANDRO CARBO", "utiles": true, "valido": true, "type": "primarios"}}, {"geometry": {"type": "Point", "coordinates": [-64.21100152, -31.47981983]}, "id": "277", "type": "Feature", "properties": {"tipo_escuela": "ESCUELA MADRE", "nivel_educativo": "PRIMARIO", "ambito": "URBANO", "name": "PROVINCIA DE SANTIAGO DEL ESTERO", "utiles": true, "valido": true, "type": "primarios"}}, {"geometry": {"type": "Point", "coordinates": [-64.20044843, -31.46503351]}, "id": "278", "type": "Feature", "properties": {"tipo_escuela": "ESCUELA MADRE", "nivel_educativo": "PRIMARIO", "ambito": "URBANO", "name": "ERNESTO BANCALARI", "utiles": true, "valido": true, "type": "primarios"}}, {"geometry": {"type": "Point", "coordinates": [-64.22293038, -31.47128664]}, "id": "279", "type": "Feature", "properties": {"tipo_escuela": "ESCUELA MADRE", "nivel_educativo": "PRIMARIO", "ambito": "URBANO", "name": "PATRICIAS MENDOCINAS", "utiles": true, "valido": true, "type": "primarios"}}, {"geometry": {"type": "Point", "coordinates": [-64.2035851, -31.46038553]}, "id": "280", "type": "Feature", "properties": {"tipo_escuela": "ESCUELA MADRE", "nivel_educativo": "PRIMARIO", "ambito": "URBANO", "name": "YAPEYU", "utiles": true, "valido": true, "type": "primarios"}}, {"geometry": {"type": "Point", "coordinates": [-64.18423998, -31.44336082]}, "id": "281", "type": "Feature", "properties": {"tipo_escuela": "ESCUELA MADRE", "nivel_educativo": "PRIMARIO", "ambito": "URBANO", "name": "20 DE JUNIO", "utiles": true, "valido": true, "type": "primarios"}}, {"geometry": {"type": "Point", "coordinates": [-64.1798456, -31.45057448]}, "id": "282", "type": "Feature", "properties": {"tipo_escuela": "ESCUELA MADRE", "nivel_educativo": "PRIMARIO", "ambito": "URBANO", "name": "NICOLAS BERROTARAN", "utiles": true, "valido": true, "type": "primarios"}}, {"geometry": {"type": "Point", "coordinates": [-64.192596, -31.447291]}, "id": "283", "type": "Feature", "properties": {"tipo_escuela": "ESCUELA MADRE", "nivel_educativo": "PRIMARIO", "ambito": "URBANO", "name": "ALMAFUERTE", "utiles": true, "valido": true, "type": "primarios"}}, {"geometry": {"type": "Point", "coordinates": [-64.1909613, -31.45815434]}, "id": "284", "type": "Feature", "properties": {"tipo_escuela": "ESCUELA MADRE", "nivel_educativo": "PRIMARIO", "ambito": "URBANO", "name": "DE LAS AMERICAS", "utiles": true, "valido": true, "type": "primarios"}}, {"geometry": {"type": "Point", "coordinates": [-64.19363826, -31.47670021]}, "id": "285", "type": "Feature", "properties": {"tipo_escuela": "ESCUELA MADRE", "nivel_educativo": "PRIMARIO", "ambito": "URBANO", "name": "SAN JOSE DE CALASANZ", "utiles": true, "valido": true, "type": "primarios"}}, {"geometry": {"type": "Point", "coordinates": [-64.20178577, -31.47208565]}, "id": "286", "type": "Feature", "properties": {"tipo_escuela": "ESCUELA MADRE", "nivel_educativo": "PRIMARIO", "ambito": "URBANO", "name": "LORENZO SUAREZ DE FIGUEROA", "utiles": true, "valido": true, "type": "primarios"}}, {"geometry": {"type": "Point", "coordinates": [-64.23470735, -31.47103266]}, "id": "288", "type": "Feature", "properties": {"tipo_escuela": "ESCUELA MADRE", "nivel_educativo": "PRIMARIO", "ambito": "URBANO", "name": "BANDERA ARGENTINA", "utiles": true, "valido": true, "type": "primarios"}}, {"geometry": {"type": "Point", "coordinates": [-64.24751821, -31.47961651]}, "id": "289", "type": "Feature", "properties": {"tipo_escuela": "ESCUELA MADRE", "nivel_educativo": "PRIMARIO", "ambito": "URBANO", "name": "DOCTOR BENITO SORIA", "utiles": true, "valido": true, "type": "primarios"}}, {"geometry": {"type": "Point", "coordinates": [-64.14301153, -31.47554719]}, "id": "291", "type": "Feature", "properties": {"tipo_escuela": "ESCUELA MADRE", "nivel_educativo": "PRIMARIO", "ambito": "URBANO", "name": "MARIA DEL TRANSITO CABANILLAS", "utiles": true, "valido": true, "type": "primarios"}}, {"geometry": {"type": "Point", "coordinates": [-64.20601019, -31.44298628]}, "id": "292", "type": "Feature", "properties": {"tipo_escuela": "ESCUELA MADRE", "nivel_educativo": "PRIMARIO", "ambito": "URBANO", "name": "MANUEL BELGRANO", "utiles": true, "valido": true, "type": "primarios"}}, {"geometry": {"type": "Point", "coordinates": [-64.21239526, -31.44881891]}, "id": "293", "type": "Feature", "properties": {"tipo_escuela": "ESCUELA MADRE", "nivel_educativo": "PRIMARIO", "ambito": "URBANO", "name": "GOBERNADOR JUAN BAUTISTA BUSTOS", "utiles": true, "valido": true, "type": "primarios"}}, {"geometry": {"type": "Point", "coordinates": [-64.211492, -31.441131]}, "id": "294", "type": "Feature", "properties": {"tipo_escuela": "ESCUELA MADRE", "nivel_educativo": "PRIMARIO", "ambito": "URBANO", "name": "ARZOBISPO CASTELLANO", "utiles": true, "valido": true, "type": "primarios"}}, {"geometry": {"type": "Point", "coordinates": [-64.21047464, -31.45280241]}, "id": "295", "type": "Feature", "properties": {"tipo_escuela": "ESCUELA MADRE", "nivel_educativo": "PRIMARIO", "ambito": "URBANO", "name": "REPUBLICA DE SIRIA", "utiles": true, "valido": true, "type": "primarios"}}, {"geometry": {"type": "Point", "coordinates": [-64.20072154, -31.45124142]}, "id": "299", "type": "Feature", "properties": {"tipo_escuela": "ESCUELA MADRE", "nivel_educativo": "PRIMARIO", "ambito": "URBANO", "name": "PROVINCIA DE CATAMARCA", "utiles": true, "valido": true, "type": "primarios"}}, {"geometry": {"type": "Point", "coordinates": [-64.195861, -31.446704]}, "id": "302", "type": "Feature", "properties": {"tipo_escuela": "ESCUELA MADRE", "nivel_educativo": "PRIMARIO", "ambito": "URBANO", "name": "COMODORO ROBERTO MOISES ECHEGOYEN", "utiles": true, "valido": true, "type": "primarios"}}, {"geometry": {"type": "Point", "coordinates": [-64.19887281, -31.49986053]}, "id": "303", "type": "Feature", "properties": {"tipo_escuela": "ESCUELA MADRE", "nivel_educativo": "PRIMARIO", "ambito": "URBANO", "name": "DR. ALBERT BRUCE SABIN", "utiles": true, "valido": true, "type": "primarios"}}, {"geometry": {"type": "Point", "coordinates": [-64.14219191, -31.48001704]}, "id": "318", "type": "Feature", "properties": {"tipo_escuela": "ESCUELA MADRE", "nivel_educativo": "PRIMARIO", "ambito": "URBANO", "name": "CORONEL OLMEDO", "utiles": true, "valido": true, "type": "primarios"}}, {"geometry": {"type": "Point", "coordinates": [-64.16578306, -31.450255]}, "id": "320", "type": "Feature", "properties": {"tipo_escuela": "ESCUELA MADRE", "nivel_educativo": "PRIMARIO", "ambito": "URBANO", "name": "GENERAL MANUEL BELGRANO", "utiles": true, "valido": true, "type": "primarios"}}, {"geometry": {"type": "Point", "coordinates": [-64.16863307, -31.50206678]}, "id": "323", "type": "Feature", "properties": {"tipo_escuela": "ESCUELA MADRE", "nivel_educativo": "PRIMARIO", "ambito": "URBANO", "name": "JOSE MANUEL ESTRADA", "utiles": true, "valido": true, "type": "primarios"}}, {"geometry": {"type": "Point", "coordinates": [-64.10414962, -31.463004]}, "id": "324", "type": "Feature", "properties": {"tipo_escuela": "ESCUELA MADRE", "nivel_educativo": "PRIMARIO", "ambito": "URBANO", "name": "JUAN XXIII", "utiles": true, "valido": true, "type": "primarios"}}, {"geometry": {"type": "Point", "coordinates": [-64.11090047, -31.46117086]}, "id": "325", "type": "Feature", "properties": {"tipo_escuela": "ESCUELA MADRE", "nivel_educativo": "PRIMARIO", "ambito": "URBANO", "name": "LIBERTADOR GENERAL SAN MARTIN", "utiles": true, "valido": true, "type": "primarios"}}, {"geometry": {"type": "Point", "coordinates": [-64.08890907, -31.4661482]}, "id": "326", "type": "Feature", "properties": {"tipo_escuela": "ESCUELA MADRE", "nivel_educativo": "PRIMARIO", "ambito": "URBANO", "name": "EJERCITO ARGENTINO", "utiles": true, "valido": true, "type": "primarios"}}, {"geometry": {"type": "Point", "coordinates": [-64.076726, -31.492202]}, "id": "327", "type": "Feature", "properties": {"tipo_escuela": "ESCUELA MADRE", "nivel_educativo": "PRIMARIO", "ambito": "URBANO", "name": "REPUBLICA DE COSTA RICA", "utiles": true, "valido": true, "type": "primarios"}}, {"geometry": {"type": "Point", "coordinates": [-64.10940011, -31.45422291]}, "id": "328", "type": "Feature", "properties": {"tipo_escuela": "ESCUELA MADRE", "nivel_educativo": "PRIMARIO", "ambito": "URBANO", "name": "CONSTANCIO CECILIO VIGIL", "utiles": true, "valido": true, "type": "primarios"}}, {"geometry": {"type": "Point", "coordinates": [-64.101698, -31.505733]}, "id": "332", "type": "Feature", "properties": {"tipo_escuela": "ESCUELA MADRE", "nivel_educativo": "PRIMARIO", "ambito": "URBANO", "name": "GENERAL MANUEL DE ESCALADA", "utiles": true, "valido": true, "type": "primarios"}}, {"geometry": {"type": "Point", "coordinates": [-64.16908104, -31.47051954]}, "id": "333", "type": "Feature", "properties": {"tipo_escuela": "ESCUELA MADRE", "nivel_educativo": "PRIMARIO", "ambito": "URBANO", "name": "DOCTOR NICOLAS AVELLANEDA", "utiles": true, "valido": true, "type": "primarios"}}, {"geometry": {"type": "Point", "coordinates": [-64.17159864, -31.4475665]}, "id": "334", "type": "Feature", "properties": {"tipo_escuela": "ESCUELA MADRE", "nivel_educativo": "PRIMARIO", "ambito": "URBANO", "name": "INGENIERO JUAN MARIO MASJOAN", "utiles": true, "valido": true, "type": "primarios"}}, {"geometry": {"type": "Point", "coordinates": [-64.164977, -31.459879]}, "id": "337", "type": "Feature", "properties": {"tipo_escuela": "ESCUELA MADRE", "nivel_educativo": "PRIMARIO", "ambito": "URBANO", "name": "RAUL ANGEL FERREYRA", "utiles": true, "valido": true, "type": "primarios"}}, {"geometry": {"type": "Point", "coordinates": [-64.20760461, -31.4774911]}, "id": "338", "type": "Feature", "properties": {"tipo_escuela": "ESCUELA MADRE", "nivel_educativo": "PRIMARIO", "ambito": "URBANO", "name": "PRESIDENTE DOCTOR ARTURO UMBERTO ILLIA", "utiles": true, "valido": true, "type": "primarios"}}, {"geometry": {"type": "Point", "coordinates": [-64.08781346, -31.40355339]}, "id": "354", "type": "Feature", "properties": {"tipo_escuela": "ESCUELA MADRE", "nivel_educativo": "PRIMARIO", "ambito": "URBANO", "name": "ADOLFO VAN GELDEREN", "utiles": true, "valido": true, "type": "primarios"}}, {"geometry": {"type": "Point", "coordinates": [-64.05717477, -31.41862389]}, "id": "359", "type": "Feature", "properties": {"tipo_escuela": "ESCUELA MADRE", "nivel_educativo": "PRIMARIO", "ambito": "URBANO", "name": "TRANSITO CACERES DE ALLENDE", "utiles": true, "valido": true, "type": "primarios"}}, {"geometry": {"type": "Point", "coordinates": [-64.2609163, -31.31297]}, "id": "360", "type": "Feature", "properties": {"tipo_escuela": "ESCUELA MADRE", "nivel_educativo": "PRIMARIO", "ambito": "URBANO", "name": "JOS\u00c9 GABRIEL CONDORCANQUI-TUPAC AMAR\u00da II(EX ANEXO CURA BROCHERO)", "utiles": true, "valido": true, "type": "primarios"}}, {"geometry": {"type": "Point", "coordinates": [-64.193446, -31.366939]}, "id": "361", "type": "Feature", "properties": {"tipo_escuela": "ESCUELA MADRE", "nivel_educativo": "PRIMARIO", "ambito": "URBANO", "name": "JOSE LUIS SERSIC (EX ANEXO H LACONI)", "utiles": true, "valido": true, "type": "primarios"}}, {"geometry": {"type": "Point", "coordinates": [-64.22472195, -31.48035889]}, "id": "362", "type": "Feature", "properties": {"tipo_escuela": "ESCUELA MADRE", "nivel_educativo": "PRIMARIO", "ambito": "URBANO", "name": "VICENTE FORESTIERI", "utiles": true, "valido": true, "type": "primarios"}}, {"geometry": {"type": "Point", "coordinates": [-64.23497, -31.480023]}, "id": "363", "type": "Feature", "properties": {"tipo_escuela": "ESCUELA MADRE", "nivel_educativo": "PRIMARIO", "ambito": "URBANO", "name": "OSVALDO JORGE LEON (ex-Anexo Bandera Argentina)", "utiles": true, "valido": true, "type": "primarios"}}, {"geometry": {"type": "Point", "coordinates": [-64.24232637, -31.47876003]}, "id": "364", "type": "Feature", "properties": {"tipo_escuela": "ESCUELA MADRE", "nivel_educativo": "PRIMARIO", "ambito": "URBANO", "name": "CEFERINO NAMUNCURA", "utiles": true, "valido": true, "type": "primarios"}}, {"geometry": {"type": "Point", "coordinates": [-64.15795941, -31.46430711]}, "id": "366", "type": "Feature", "properties": {"tipo_escuela": "ESCUELA MADRE", "nivel_educativo": "PRIMARIO", "ambito": "URBANO", "name": "MADRE TERESA DE CALCUTA", "utiles": true, "valido": true, "type": "primarios"}}, {"geometry": {"type": "Point", "coordinates": [-64.2612056, -31.31350302]}, "id": "367", "type": "Feature", "properties": {"tipo_escuela": "ESCUELA MADRE", "nivel_educativo": "PRIMARIO", "ambito": "URBANO", "name": "DR. RENE FAVALORO", "utiles": true, "valido": true, "type": "primarios"}}, {"geometry": {"type": "Point", "coordinates": [-64.09287247, -31.4589536]}, "id": "368", "type": "Feature", "properties": {"tipo_escuela": "ESCUELA MADRE", "nivel_educativo": "PRIMARIO", "ambito": "URBANO", "name": "HEROES DE MALVINAS", "utiles": true, "valido": true, "type": "primarios"}}, {"geometry": {"type": "Point", "coordinates": [-64.25380444, -31.32073938]}, "id": "369", "type": "Feature", "properties": {"tipo_escuela": "ESCUELA MADRE", "nivel_educativo": "PRIMARIO", "ambito": "URBANO", "name": "JAVIER VILLAFA\u00d1E", "utiles": true, "valido": true, "type": "primarios"}}, {"geometry": {"type": "Point", "coordinates": [-64.27980081, -31.3232745]}, "id": "370", "type": "Feature", "properties": {"tipo_escuela": "ESCUELA MADRE", "nivel_educativo": "PRIMARIO", "ambito": "URBANO", "name": "GERONIMO GRAGERA", "utiles": true, "valido": true, "type": "primarios"}}, {"geometry": {"type": "Point", "coordinates": [-64.084943, -31.481797]}, "id": "372", "type": "Feature", "properties": {"tipo_escuela": "ESCUELA MADRE", "nivel_educativo": "PRIMARIO", "ambito": "URBANO", "name": "DR. CARLOS SAAVEDRA LAMAS", "utiles": true, "valido": true, "type": "primarios"}}, {"geometry": {"type": "Point", "coordinates": [-64.13023308, -31.3694037]}, "id": "373", "type": "Feature", "properties": {"tipo_escuela": "ESCUELA MADRE", "nivel_educativo": "PRIMARIO", "ambito": "URBANO", "name": "2 DE ABRIL", "utiles": true, "valido": true, "type": "primarios"}}, {"geometry": {"type": "Point", "coordinates": [-64.185807, -31.360623]}, "id": "376", "type": "Feature", "properties": {"tipo_escuela": "ESCUELA MADRE", "nivel_educativo": "PRIMARIO", "ambito": "URBANO", "name": "GOBERNADOR MANUEL LOPEZ", "utiles": true, "valido": true, "type": "primarios"}}, {"geometry": {"type": "Point", "coordinates": [-64.16016022, -31.35926446]}, "id": "377", "type": "Feature", "properties": {"tipo_escuela": "ESCUELA MADRE", "nivel_educativo": "PRIMARIO", "ambito": "URBANO", "name": "EVA DUARTE", "utiles": true, "valido": true, "type": "primarios"}}, {"geometry": {"type": "Point", "coordinates": [-64.18114696, -31.33659435]}, "id": "379", "type": "Feature", "properties": {"tipo_escuela": "ESCUELA MADRE", "nivel_educativo": "PRIMARIO", "ambito": "URBANO", "name": "DR. HUMBERTO ROQUE DAGUM", "utiles": true, "valido": true, "type": "primarios"}}, {"geometry": {"type": "Point", "coordinates": [-64.19074809, -31.51358564]}, "id": "382", "type": "Feature", "properties": {"tipo_escuela": "ESCUELA ANEXO", "nivel_educativo": "PRIMARIO", "ambito": "URBANO", "name": "ALBERT BRUCE SABIN (ANEXO)", "utiles": true, "valido": true, "type": "primarios"}}, {"geometry": {"type": "Point", "coordinates": [-64.16284334, -31.34371029]}, "id": "384", "type": "Feature", "properties": {"tipo_escuela": "ESCUELA MADRE", "nivel_educativo": "PRIMARIO", "ambito": "URBANO", "name": "MAESTRO MOYANO", "utiles": true, "valido": true, "type": "primarios"}}, {"geometry": {"type": "Point", "coordinates": [-64.110039, -31.449343]}, "id": "385", "type": "Feature", "properties": {"tipo_escuela": "ESCUELA MADRE", "nivel_educativo": "PRIMARIO", "ambito": "URBANO", "name": "PRESIDENTE JUAN DOMINGO PERON", "utiles": true, "valido": true, "type": "primarios"}}, {"geometry": {"type": "Point", "coordinates": [-64.085472, -31.477052]}, "id": "386", "type": "Feature", "properties": {"tipo_escuela": "ESCUELA MADRE", "nivel_educativo": "PRIMARIO", "ambito": "URBANO", "name": "MAESTRA MARIA SALEME", "utiles": true, "valido": true, "type": "primarios"}}, {"geometry": {"type": "Point", "coordinates": [-64.22252811, -31.45246554]}, "id": "387", "type": "Feature", "properties": {"tipo_escuela": "ESCUELA MADRE", "nivel_educativo": "PRIMARIO", "ambito": "URBANO", "name": "ELPIDIO TORRES", "utiles": true, "valido": true, "type": "primarios"}}, {"geometry": {"type": "Point", "coordinates": [-64.21782105, -31.46863098]}, "id": "388", "type": "Feature", "properties": {"tipo_escuela": "ESCUELA MADRE", "nivel_educativo": "PRIMARIO", "ambito": "URBANO", "name": "MARTA JUANA GONZALEZ - EX PATRICIAS MENDOCINAS", "utiles": true, "valido": true, "type": "primarios"}}, {"geometry": {"type": "Point", "coordinates": [-64.12531302, -31.37083811]}, "id": "389", "type": "Feature", "properties": {"tipo_escuela": "ESCUELA MADRE", "nivel_educativo": "PRIMARIO", "ambito": "URBANO", "name": "DR. CARLOS TAGLE ACHAVAL", "utiles": true, "valido": true, "type": "primarios"}}, {"geometry": {"type": "Point", "coordinates": [-64.10602151, -31.38788465]}, "id": "390", "type": "Feature", "properties": {"tipo_escuela": "ESCUELA MADRE", "nivel_educativo": "PRIMARIO", "ambito": "URBANO", "name": "JUANA AZURDUY", "utiles": true, "valido": true, "type": "primarios"}}, {"geometry": {"type": "Point", "coordinates": [-64.18606574, -31.49620105]}, "id": "391", "type": "Feature", "properties": {"tipo_escuela": "ESCUELA MADRE", "nivel_educativo": "PRIMARIO", "ambito": "URBANO", "name": "PROFESOR OSCAR RAUL MALVASIO", "utiles": true, "valido": true, "type": "primarios"}}, {"geometry": {"type": "Point", "coordinates": [-64.254078, -31.318754]}, "id": "392", "type": "Feature", "properties": {"tipo_escuela": "ESCUELA MADRE", "nivel_educativo": "PRIMARIO", "ambito": "URBANO", "name": "DON ARTEMIO ARAN", "utiles": true, "valido": true, "type": "primarios"}}, {"geometry": {"type": "Point", "coordinates": [-64.14509944, -31.34801267]}, "id": "393", "type": "Feature", "properties": {"tipo_escuela": "ESCUELA MADRE", "nivel_educativo": "PRIMARIO", "ambito": "URBANO", "name": "CLARA BEATRIZ ALTAMIRANO", "utiles": true, "valido": true, "type": "primarios"}}, {"geometry": {"type": "Point", "coordinates": [-64.15324472, -31.36401447]}, "id": "394", "type": "Feature", "properties": {"tipo_escuela": "ESCUELA MADRE", "nivel_educativo": "PRIMARIO", "ambito": "URBANO", "name": "CARLOS MUJICA", "utiles": true, "valido": true, "type": "primarios"}}, {"geometry": {"type": "Point", "coordinates": [-64.11998478, -31.47549286]}, "id": "395", "type": "Feature", "properties": {"tipo_escuela": "ESCUELA MADRE", "nivel_educativo": "PRIMARIO", "ambito": "URBANO", "name": "PAULINO FRANCES", "utiles": true, "valido": true, "type": "primarios"}}, {"geometry": {"type": "Point", "coordinates": [-64.22805898, -31.48297844]}, "id": "396", "type": "Feature", "properties": {"tipo_escuela": "ESCUELA MADRE", "nivel_educativo": "PRIMARIO", "ambito": "URBANO", "name": "GRACIELA DEL RIO", "utiles": true, "valido": true, "type": "primarios"}}, {"geometry": {"type": "Point", "coordinates": [-64.2609163, -31.31297]}, "id": "397", "type": "Feature", "properties": {"tipo_escuela": "ESCUELA MADRE", "nivel_educativo": "PRIMARIO", "ambito": "URBANO", "name": "JORGE RAUL RECALDE", "utiles": true, "valido": true, "type": "primarios"}}, {"geometry": {"type": "Point", "coordinates": [-64.0607582, -31.39420635]}, "id": "398", "type": "Feature", "properties": {"tipo_escuela": "ESCUELA MADRE", "nivel_educativo": "PRIMARIO", "ambito": "URBANO", "name": "NORMA QUARTINO", "utiles": true, "valido": true, "type": "primarios"}}, {"geometry": {"type": "Point", "coordinates": [-64.21854914, -31.35051544]}, "id": "399", "type": "Feature", "properties": {"tipo_escuela": "ESCUELA MADRE", "nivel_educativo": "PRIMARIO", "ambito": "URBANO", "name": "DRA. LILIANA BEATRIZ SARMIENTO HERRERA", "utiles": true, "valido": true, "type": "primarios"}}, {"geometry": {"type": "Point", "coordinates": [-64.252651, -31.477103]}, "id": "400", "type": "Feature", "properties": {"tipo_escuela": "ESCUELA MADRE", "nivel_educativo": "PRIMARIO", "ambito": "URBANO", "name": "SIN NOMBRE B\u00ba VICOR", "utiles": true, "valido": true, "type": "primarios"}}, {"geometry": {"type": "Point", "coordinates": [-64.1804733, -31.3107891]}, "id": "401", "type": "Feature", "properties": {"tipo_escuela": "ESCUELA ANEXO", "nivel_educativo": "PRIMARIO", "ambito": "URBANO", "name": "U.N.E.S.C.O. ANEXO", "utiles": true, "valido": true, "type": "primarios"}}, {"geometry": {"type": "Point", "coordinates": [-63.947324, -31.343335]}, "id": "405", "type": "Feature", "properties": {"tipo_escuela": "ESCUELA MADRE", "nivel_educativo": "PRIMARIO", "ambito": "URBANO", "name": "25 DE MAYO", "utiles": true, "valido": true, "type": "primarios"}}, {"geometry": {"type": "Point", "coordinates": [-63.85612874, -31.32303533]}, "id": "428", "type": "Feature", "properties": {"tipo_escuela": "ESCUELA MADRE", "nivel_educativo": "PRIMARIO", "ambito": "RURAL", "name": "ANTARTIDA ARGENTINA", "utiles": true, "valido": true, "type": "primarios"}}, {"geometry": {"type": "Point", "coordinates": [-63.94474, -31.34548]}, "id": "441", "type": "Feature", "properties": {"tipo_escuela": "ESCUELA MADRE", "nivel_educativo": "PRIMARIO", "ambito": "URBANO", "name": "MAESTRO DOMINGO  NOGAL", "utiles": true, "valido": true, "type": "primarios"}}, {"geometry": {"type": "Point", "coordinates": [-63.89371257, -31.18497825]}, "id": "446", "type": "Feature", "properties": {"tipo_escuela": "ESCUELA MADRE", "nivel_educativo": "PRIMARIO", "ambito": "RURAL", "name": "MANUEL BELGRANO", "utiles": true, "valido": true, "type": "primarios"}}, {"geometry": {"type": "Point", "coordinates": [-63.88356407, -31.25596752]}, "id": "447", "type": "Feature", "properties": {"tipo_escuela": "ESCUELA MADRE", "nivel_educativo": "PRIMARIO", "ambito": "RURAL", "name": "DOMINGO FAUSTINO SARMIENTO", "utiles": true, "valido": true, "type": "primarios"}}, {"geometry": {"type": "Point", "coordinates": [-63.94474, -31.34548]}, "id": "558", "type": "Feature", "properties": {"tipo_escuela": "ESCUELA MADRE", "nivel_educativo": "PRIMARIO", "ambito": "URBANO", "name": "MARGARITA VAZQUEZ LUDUE\u00d1A DE LAZO", "utiles": true, "valido": true, "type": "primarios"}}, {"geometry": {"type": "Point", "coordinates": [-64.09041662, -31.00865314]}, "id": "559", "type": "Feature", "properties": {"tipo_escuela": "ESCUELA MADRE", "nivel_educativo": "PRIMARIO", "ambito": "URBANO", "name": "GENERAL MANUEL BELGRANO", "utiles": true, "valido": true, "type": "primarios"}}, {"geometry": {"type": "Point", "coordinates": [-64.06637282, -31.02122505]}, "id": "560", "type": "Feature", "properties": {"tipo_escuela": "ESCUELA MADRE", "nivel_educativo": "PRIMARIO", "ambito": "URBANO", "name": "GENERAL SAN MARTIN", "utiles": true, "valido": true, "type": "primarios"}}, {"geometry": {"type": "Point", "coordinates": [-64.1406522, -31.1352458]}, "id": "561", "type": "Feature", "properties": {"tipo_escuela": "ESCUELA MADRE", "nivel_educativo": "PRIMARIO", "ambito": "URBANO", "name": "JOSE MARIA PAZ", "utiles": true, "valido": true, "type": "primarios"}}, {"geometry": {"type": "Point", "coordinates": [-64.09499567, -30.98086743]}, "id": "562", "type": "Feature", "properties": {"tipo_escuela": "ESCUELA MADRE", "nivel_educativo": "PRIMARIO", "ambito": "URBANO", "name": "GENERAL FRANCISCO ORTIZ DE OCAMPO", "utiles": true, "valido": true, "type": "primarios"}}, {"geometry": {"type": "Point", "coordinates": [-64.09499567, -30.98086743]}, "id": "563", "type": "Feature", "properties": {"tipo_escuela": "ESCUELA MADRE", "nivel_educativo": "PRIMARIO", "ambito": "URBANO", "name": "DOCTOR FRANCISCO NARCISO LAPRIDA", "utiles": true, "valido": true, "type": "primarios"}}, {"geometry": {"type": "Point", "coordinates": [-64.09455956, -30.98537141]}, "id": "564", "type": "Feature", "properties": {"tipo_escuela": "ESCUELA MADRE", "nivel_educativo": "PRIMARIO", "ambito": "URBANO", "name": "PRIMER TENIENTE ALBERTO LUIS MORANDINI", "utiles": true, "valido": true, "type": "primarios"}}, {"geometry": {"type": "Point", "coordinates": [-64.0433397, -31.04643051]}, "id": "567", "type": "Feature", "properties": {"tipo_escuela": "ESCUELA MADRE", "nivel_educativo": "PRIMARIO", "ambito": "URBANO", "name": "MARIANO MORENO", "utiles": true, "valido": true, "type": "primarios"}}, {"geometry": {"type": "Point", "coordinates": [-64.06759299, -31.22827701]}, "id": "572", "type": "Feature", "properties": {"tipo_escuela": "ESCUELA MADRE", "nivel_educativo": "PRIMARIO", "ambito": "URBANO", "name": "DR. PABLO RUEDA", "utiles": true, "valido": true, "type": "primarios"}}, {"geometry": {"type": "Point", "coordinates": [-64.16679, -31.261543]}, "id": "575", "type": "Feature", "properties": {"tipo_escuela": "ESCUELA MADRE", "nivel_educativo": "PRIMARIO", "ambito": "URBANO", "name": "COMODORO ROLANDO SILIONI", "utiles": true, "valido": true, "type": "primarios"}}, {"geometry": {"type": "Point", "coordinates": [-64.08717748, -30.97858856]}, "id": "576", "type": "Feature", "properties": {"tipo_escuela": "ESCUELA MADRE", "nivel_educativo": "PRIMARIO", "ambito": "URBANO", "name": "GENDARMERIA NACIONAL", "utiles": true, "valido": true, "type": "primarios"}}, {"geometry": {"type": "Point", "coordinates": [-64.06038549, -31.32152943]}, "id": "579", "type": "Feature", "properties": {"tipo_escuela": "ESCUELA MADRE", "nivel_educativo": "PRIMARIO", "ambito": "RURAL", "name": "EDUARDO WILDE", "utiles": true, "valido": true, "type": "primarios"}}, {"geometry": {"type": "Point", "coordinates": [-64.055197, -31.267014]}, "id": "580", "type": "Feature", "properties": {"tipo_escuela": "ESCUELA MADRE", "nivel_educativo": "PRIMARIO", "ambito": "URBANO", "name": "JOSE INGENIEROS", "utiles": true, "valido": true, "type": "primarios"}}, {"geometry": {"type": "Point", "coordinates": [-64.074193, -31.258817]}, "id": "581", "type": "Feature", "properties": {"tipo_escuela": "ESCUELA MADRE", "nivel_educativo": "PRIMARIO", "ambito": "URBANO", "name": "GRUPO ARTILLERIA AEROTRANSPORTADO 4", "utiles": true, "valido": true, "type": "primarios"}}, {"geometry": {"type": "Point", "coordinates": [-64.06674259, -31.25669329]}, "id": "583", "type": "Feature", "properties": {"tipo_escuela": "ESCUELA MADRE", "nivel_educativo": "PRIMARIO", "ambito": "RURAL", "name": "PATRICIAS ARGENTINAS", "utiles": true, "valido": true, "type": "primarios"}}, {"geometry": {"type": "Point", "coordinates": [-63.9533565, -31.2562626]}, "id": "584", "type": "Feature", "properties": {"tipo_escuela": "ESCUELA MADRE", "nivel_educativo": "PRIMARIO", "ambito": "RURAL", "name": "GENERAL LAMADRID", "utiles": true, "valido": true, "type": "primarios"}}, {"geometry": {"type": "Point", "coordinates": [-64.08758329, -31.03858379]}, "id": "593", "type": "Feature", "properties": {"tipo_escuela": "ESCUELA MADRE", "nivel_educativo": "PRIMARIO", "ambito": "URBANO", "name": "MARIANO MORENO", "utiles": true, "valido": true, "type": "primarios"}}, {"geometry": {"type": "Point", "coordinates": [-64.1435174, -31.297188]}, "id": "596", "type": "Feature", "properties": {"tipo_escuela": "ESCUELA MADRE", "nivel_educativo": "PRIMARIO", "ambito": "RURAL", "name": "LA SANTA MARIA", "utiles": true, "valido": true, "type": "primarios"}}, {"geometry": {"type": "Point", "coordinates": [-64.10810871, -30.99731014]}, "id": "598", "type": "Feature", "properties": {"tipo_escuela": "ESCUELA MADRE", "nivel_educativo": "PRIMARIO", "ambito": "URBANO", "name": "LOS INMIGRANTES", "utiles": true, "valido": true, "type": "primarios"}}, {"geometry": {"type": "Point", "coordinates": [-64.2778586, -31.30573532]}, "id": "599", "type": "Feature", "properties": {"tipo_escuela": "ESCUELA MADRE", "nivel_educativo": "PRIMARIO", "ambito": "URBANO", "name": "ATAHUALPA YUPANQUI", "utiles": true, "valido": true, "type": "primarios"}}, {"geometry": {"type": "Point", "coordinates": [-64.0721367, -31.00617654]}, "id": "600", "type": "Feature", "properties": {"tipo_escuela": "ESCUELA MADRE", "nivel_educativo": "PRIMARIO", "ambito": "URBANO", "name": "REPUBLICA DE ITALIA", "utiles": true, "valido": true, "type": "primarios"}}, {"geometry": {"type": "Point", "coordinates": [-64.043336, -31.366622]}, "id": "603", "type": "Feature", "properties": {"tipo_escuela": "ESCUELA MADRE", "nivel_educativo": "PRIMARIO", "ambito": "URBANO", "name": "CAPITAN LUIS C. CANDELARIA", "utiles": true, "valido": true, "type": "primarios"}}, {"geometry": {"type": "Point", "coordinates": [-64.07463455, -31.25832604]}, "id": "606", "type": "Feature", "properties": {"tipo_escuela": "ESCUELA MADRE", "nivel_educativo": "PRIMARIO", "ambito": "RURAL", "name": "HIPOLITO DE  SAHAGUN NAVARRO", "utiles": true, "valido": true, "type": "primarios"}}, {"geometry": {"type": "Point", "coordinates": [-64.013931, -31.274794]}, "id": "607", "type": "Feature", "properties": {"tipo_escuela": "ESCUELA MADRE", "nivel_educativo": "PRIMARIO", "ambito": "RURAL", "name": "CARLOS MOREL", "utiles": true, "valido": true, "type": "primarios"}}, {"geometry": {"type": "Point", "coordinates": [-64.06079081, -31.0152002]}, "id": "612", "type": "Feature", "properties": {"tipo_escuela": "ESCUELA MADRE", "nivel_educativo": "PRIMARIO", "ambito": "URBANO", "name": "DOMINGO FAUSTINO SARMIENTO", "utiles": true, "valido": true, "type": "primarios"}}, {"geometry": {"type": "Point", "coordinates": [-64.10391276, -30.98267674]}, "id": "613", "type": "Feature", "properties": {"tipo_escuela": "ESCUELA MADRE", "nivel_educativo": "PRIMARIO", "ambito": "URBANO", "name": "DOCTOR JOSE MANUEL ESTRADA", "utiles": true, "valido": true, "type": "primarios"}}, {"geometry": {"type": "Point", "coordinates": [-64.01759037, -31.02837485]}, "id": "614", "type": "Feature", "properties": {"tipo_escuela": "ESCUELA MADRE", "nivel_educativo": "PRIMARIO", "ambito": "URBANO", "name": "VICENTE AGUERO", "utiles": true, "valido": true, "type": "primarios"}}, {"geometry": {"type": "Point", "coordinates": [-64.18038, -31.299964]}, "id": "616", "type": "Feature", "properties": {"tipo_escuela": "ESCUELA MADRE", "nivel_educativo": "PRIMARIO", "ambito": "URBANO", "name": "ATAHUALPA YUPANQUI", "utiles": true, "valido": true, "type": "primarios"}}, {"geometry": {"type": "Point", "coordinates": [-64.08397382, -30.98294443]}, "id": "617", "type": "Feature", "properties": {"tipo_escuela": "ESCUELA MADRE", "nivel_educativo": "PRIMARIO", "ambito": "URBANO", "name": "CAPITAN DE FRAGATA PEDRO E. GIACHINO", "utiles": true, "valido": true, "type": "primarios"}}, {"geometry": {"type": "Point", "coordinates": [-63.95644262, -31.16107976]}, "id": "619", "type": "Feature", "properties": {"tipo_escuela": "ESCUELA MADRE", "nivel_educativo": "PRIMARIO", "ambito": "RURAL", "name": "PTE.DR. ARTURO HUMBERTO ILLIA", "utiles": true, "valido": true, "type": "primarios"}}, {"geometry": {"type": "Point", "coordinates": [-64.11431485, -31.0227176]}, "id": "622", "type": "Feature", "properties": {"tipo_escuela": "ESCUELA MADRE", "nivel_educativo": "PRIMARIO", "ambito": "URBANO", "name": "SUBOFICIAL PRINCIPAL RAMON GUMERCINDO ACOSTA", "utiles": true, "valido": true, "type": "primarios"}}, {"geometry": {"type": "Point", "coordinates": [-64.05029, -31.37112]}, "id": "624", "type": "Feature", "properties": {"tipo_escuela": "ESCUELA MADRE", "nivel_educativo": "PRIMARIO", "ambito": "URBANO", "name": "CIUDAD DE MALVINAS ARGENTINAS", "utiles": true, "valido": true, "type": "primarios"}}, {"geometry": {"type": "Point", "coordinates": [-64.1667511, -31.280198]}, "id": "627", "type": "Feature", "properties": {"tipo_escuela": "ESCUELA MADRE", "nivel_educativo": "PRIMARIO", "ambito": "URBANO", "name": "LEOPOLDO LUGONES", "utiles": true, "valido": true, "type": "primarios"}}, {"geometry": {"type": "Point", "coordinates": [-64.43411, -31.65827]}, "id": "631", "type": "Feature", "properties": {"tipo_escuela": "ESCUELA MADRE", "nivel_educativo": "PRIMARIO", "ambito": "URBANO", "name": "MANUEL SOLARES", "utiles": true, "valido": true, "type": "primarios"}}, {"geometry": {"type": "Point", "coordinates": [-64.43193394, -31.65346002]}, "id": "632", "type": "Feature", "properties": {"tipo_escuela": "ESCUELA MADRE", "nivel_educativo": "PRIMARIO", "ambito": "URBANO", "name": "SAN MARTIN", "utiles": true, "valido": true, "type": "primarios"}}, {"geometry": {"type": "Point", "coordinates": [-64.417982, -31.657678]}, "id": "634", "type": "Feature", "properties": {"tipo_escuela": "ESCUELA MADRE", "nivel_educativo": "PRIMARIO", "ambito": "URBANO", "name": "JOSE MARIA PAZ", "utiles": true, "valido": true, "type": "primarios"}}, {"geometry": {"type": "Point", "coordinates": [-64.287791, -31.81764]}, "id": "635", "type": "Feature", "properties": {"tipo_escuela": "ESCUELA MADRE", "nivel_educativo": "PRIMARIO", "ambito": "URBANO", "name": "25 DE MAYO", "utiles": true, "valido": true, "type": "primarios"}}, {"geometry": {"type": "Point", "coordinates": [-64.14755071, -31.56157213]}, "id": "646", "type": "Feature", "properties": {"tipo_escuela": "ESCUELA MADRE", "nivel_educativo": "PRIMARIO", "ambito": "RURAL", "name": "INDEPENDENCIA ARGENTINA", "utiles": true, "valido": true, "type": "primarios"}}, {"geometry": {"type": "Point", "coordinates": [-64.04534011, -31.51990138]}, "id": "647", "type": "Feature", "properties": {"tipo_escuela": "ESCUELA MADRE", "nivel_educativo": "PRIMARIO", "ambito": "RURAL", "name": "DALMACIO VELEZ SARSFIELD", "utiles": true, "valido": true, "type": "primarios"}}, {"geometry": {"type": "Point", "coordinates": [-64.4518214, -31.5339382]}, "id": "651", "type": "Feature", "properties": {"tipo_escuela": "ESCUELA MADRE", "nivel_educativo": "PRIMARIO", "ambito": "RURAL", "name": "JUAN JOSE PASO", "utiles": true, "valido": true, "type": "primarios"}}, {"geometry": {"type": "Point", "coordinates": [-64.2860098, -31.5249936]}, "id": "655", "type": "Feature", "properties": {"tipo_escuela": "ESCUELA MADRE", "nivel_educativo": "PRIMARIO", "ambito": "RURAL", "name": "CATALINA B. DE BARON", "utiles": true, "valido": true, "type": "primarios"}}, {"geometry": {"type": "Point", "coordinates": [-64.2466309, -31.5523587]}, "id": "658", "type": "Feature", "properties": {"tipo_escuela": "ESCUELA MADRE", "nivel_educativo": "PRIMARIO", "ambito": "RURAL", "name": "CORNELIO SAAVEDRA", "utiles": true, "valido": true, "type": "primarios"}}, {"geometry": {"type": "Point", "coordinates": [-64.4570711, -31.4935861]}, "id": "659", "type": "Feature", "properties": {"tipo_escuela": "ESCUELA MADRE", "nivel_educativo": "PRIMARIO", "ambito": "RURAL", "name": "DOCTOR NICOLAS AVELLANEDA", "utiles": true, "valido": true, "type": "primarios"}}, {"geometry": {"type": "Point", "coordinates": [-64.3556923, -31.5912799]}, "id": "661", "type": "Feature", "properties": {"tipo_escuela": "ESCUELA MADRE", "nivel_educativo": "PRIMARIO", "ambito": "URBANO", "name": "PABLO PIZZURNO", "utiles": true, "valido": true, "type": "primarios"}}, {"geometry": {"type": "Point", "coordinates": [-64.14730467, -31.52710652]}, "id": "662", "type": "Feature", "properties": {"tipo_escuela": "ESCUELA MADRE", "nivel_educativo": "PRIMARIO", "ambito": "RURAL", "name": "LIBERTADOR GENERAL SAN MARTIN", "utiles": true, "valido": true, "type": "primarios"}}, {"geometry": {"type": "Point", "coordinates": [-64.3867526, -31.6158614]}, "id": "663", "type": "Feature", "properties": {"tipo_escuela": "ESCUELA MADRE", "nivel_educativo": "PRIMARIO", "ambito": "RURAL", "name": "JOSE HERNANDEZ", "utiles": true, "valido": true, "type": "primarios"}}, {"geometry": {"type": "Point", "coordinates": [-64.455516, -31.435524]}, "id": "667", "type": "Feature", "properties": {"tipo_escuela": "ESCUELA MADRE", "nivel_educativo": "PRIMARIO", "ambito": "RURAL", "name": "GENERAL MARTIN GUEMES", "utiles": true, "valido": true, "type": "primarios"}}, {"geometry": {"type": "Point", "coordinates": [-64.07696886, -31.53338396]}, "id": "672", "type": "Feature", "properties": {"tipo_escuela": "ESCUELA MADRE", "nivel_educativo": "PRIMARIO", "ambito": "RURAL", "name": "REPUBLICA DE CHILE", "utiles": true, "valido": true, "type": "primarios"}}, {"geometry": {"type": "Point", "coordinates": [-64.43614449, -31.6463832]}, "id": "675", "type": "Feature", "properties": {"tipo_escuela": "ESCUELA MADRE", "nivel_educativo": "PRIMARIO", "ambito": "URBANO", "name": "CURA ELEODORO FIERRO", "utiles": true, "valido": true, "type": "primarios"}}, {"geometry": {"type": "Point", "coordinates": [-64.19298343, -31.55786125]}, "id": "678", "type": "Feature", "properties": {"tipo_escuela": "ESCUELA MADRE", "nivel_educativo": "PRIMARIO", "ambito": "URBANO", "name": "DOCTOR FLORENTINO FRANCISCO BUSTOS", "utiles": true, "valido": true, "type": "primarios"}}, {"geometry": {"type": "Point", "coordinates": [-64.43726888, -31.65070313]}, "id": "680", "type": "Feature", "properties": {"tipo_escuela": "ESCUELA MADRE", "nivel_educativo": "PRIMARIO", "ambito": "URBANO", "name": "VICTOR MERCANTE", "utiles": true, "valido": true, "type": "primarios"}}, {"geometry": {"type": "Point", "coordinates": [-64.40799878, -31.65751405]}, "id": "683", "type": "Feature", "properties": {"tipo_escuela": "ESCUELA MADRE", "nivel_educativo": "PRIMARIO", "ambito": "URBANO", "name": "REPUBLICA ITALIANA", "utiles": true, "valido": true, "type": "primarios"}}, {"geometry": {"type": "Point", "coordinates": [-64.31704576, -31.80412311]}, "id": "685", "type": "Feature", "properties": {"tipo_escuela": "ESCUELA MADRE", "nivel_educativo": "PRIMARIO", "ambito": "RURAL", "name": "ATALIVA HERRERA", "utiles": true, "valido": true, "type": "primarios"}}, {"geometry": {"type": "Point", "coordinates": [-64.416463, -31.646223]}, "id": "686", "type": "Feature", "properties": {"tipo_escuela": "ESCUELA MADRE", "nivel_educativo": "PRIMARIO", "ambito": "URBANO", "name": "JULIO ROBERTO BARRIENTOS", "utiles": true, "valido": true, "type": "primarios"}}, {"geometry": {"type": "Point", "coordinates": [-63.999796, -31.340951]}, "id": "688", "type": "Feature", "properties": {"tipo_escuela": "ESCUELA ANEXO", "nivel_educativo": "PRIMARIO", "ambito": "RURAL", "name": "CAPITAN LUIS C. CANDELARIA (ANEXO)", "utiles": true, "valido": true, "type": "primarios"}}, {"geometry": {"type": "Point", "coordinates": [-64.175958, -31.29577]}, "id": "689", "type": "Feature", "properties": {"tipo_escuela": "ESCUELA MADRE", "nivel_educativo": "PRIMARIO", "ambito": "URBANO", "name": "POLO GODOY ROJO", "utiles": true, "valido": true, "type": "primarios"}}, {"geometry": {"type": "Point", "coordinates": [-64.22398345, -32.56698967]}, "id": "693", "type": "Feature", "properties": {"tipo_escuela": "ESCUELA MADRE", "nivel_educativo": "PRIMARIO", "ambito": "RURAL", "name": "JOSE MARIA PAZ", "utiles": true, "valido": true, "type": "primarios"}}, {"geometry": {"type": "Point", "coordinates": [-64.22217198, -31.45377782]}, "id": "704", "type": "Feature", "properties": {"tipo_escuela": "ESCUELA MADRE", "nivel_educativo": "PRIMARIO", "ambito": "URBANO", "name": "JUAN PABLO II", "utiles": true, "valido": true, "type": "primarios"}}, {"geometry": {"type": "Point", "coordinates": [-64.22217198, -31.45377782]}, "id": "705", "type": "Feature", "properties": {"tipo_escuela": "ESCUELA MADRE", "nivel_educativo": "PRIMARIO", "ambito": "URBANO", "name": "JUAN PABLO II", "utiles": true, "valido": true, "type": "primarios"}}, {"geometry": {"type": "Point", "coordinates": [-64.21155702, -31.44593993]}, "id": "706", "type": "Feature", "properties": {"tipo_escuela": "ESCUELA MADRE", "nivel_educativo": "PRIMARIO", "ambito": "URBANO", "name": "SAN JOSE ARTESANO", "utiles": true, "valido": true, "type": "primarios"}}, {"geometry": {"type": "Point", "coordinates": [-64.10400596, -30.98586611]}, "id": "707", "type": "Feature", "properties": {"tipo_escuela": "ESCUELA MADRE", "nivel_educativo": "PRIMARIO", "ambito": "URBANO", "name": "PIO LEON", "utiles": true, "valido": true, "type": "primarios"}}], "type": "FeatureCollection"}